%time,field.header.seq,field.header.stamp,field.header.frame_id,field.bumper,field.cliff,field.sonar,field.illumination,field.led,field.button,field.torque,field.left_encoder,field.right_encoder,field.battery
1587293402004120389,30951,1587293401995865106,,2,81.0,0.0,523.0,0,0,1,94605,-187208,11.9499998093
1587293402046169816,30952,1587293402028865106,,2,141.0,0.0,540.0,0,0,1,94605,-187208,11.9499998093
1587293402063477055,30953,1587293402062865106,,2,141.0,0.0,553.0,0,0,1,94605,-187208,11.9499998093
1587293402105378461,30954,1587293402095865106,,2,141.0,0.0,494.0,0,0,1,94605,-187208,11.9799995422
1587293402148759399,30955,1587293402128865106,,2,141.0,0.0,446.0,0,0,1,94605,-187209,11.970000267
1587293402165206326,30956,1587293402168865106,,2,119.0,0.0,428.0,0,0,1,94605,-187208,11.9499998093
1587293402208646222,30957,1587293402201865106,,2,140.0,0.0,423.0,0,0,1,94606,-187208,11.970000267
1587293402249138618,30958,1587293402234865106,,2,81.0,0.0,487.0,0,0,1,94605,-187208,11.9499998093
1587293402269816170,30959,1587293402271865106,,2,141.0,0.0,438.0,0,0,1,94605,-187208,11.970000267
1587293402312874451,30960,1587293402304865106,,2,80.0,0.0,441.0,0,0,1,94605,-187208,11.970000267
1587293402355359399,30961,1587293402337865106,,2,81.0,0.0,441.0,0,0,1,94605,-187209,11.9499998093
1587293402377597993,30962,1587293402377865106,,2,125.0,0.0,444.0,0,0,1,94606,-187208,11.970000267
1587293402422762159,30963,1587293402410865106,,2,141.0,0.0,508.0,0,0,1,94606,-187208,11.9499998093
1587293402461745232,30964,1587293402443865106,,2,142.0,0.0,530.0,0,0,1,94605,-187208,11.9499998093
1587293402480817472,30965,1587293402479865106,,2,81.0,0.0,489.0,0,0,1,94606,-187208,11.9499998093
1587293402522599659,30966,1587293402512865106,,2,142.0,0.0,437.0,0,0,1,94605,-187208,11.970000267
1587293402561716586,30967,1587293402545865106,,2,81.0,0.0,434.0,0,0,1,94605,-187209,11.970000267
1587293402581442628,30968,1587293402579865106,,2,144.0,0.0,511.0,0,0,1,94605,-187208,11.970000267
1587293402621873045,30969,1587293402612865106,,2,81.0,0.0,534.0,0,0,1,94605,-187209,11.970000267
1587293402662609451,30970,1587293402645865106,,2,82.0,0.0,545.0,0,0,1,94605,-187208,11.9499998093
1587293402681682993,30971,1587293402679865106,,2,81.0,0.0,557.0,0,0,1,94605,-187208,11.9499998093
1587293402721673982,30972,1587293402712865106,,2,142.0,0.0,559.0,0,0,1,94605,-187208,11.970000267
1587293402763018461,30973,1587293402760865106,,2,143.0,0.0,564.0,0,0,1,94605,-187208,11.9499998093
1587293402804588930,30974,1587293402793865106,,2,140.0,0.0,477.0,0,0,1,94605,-187208,11.970000267
1587293402825767992,30975,1587293402827865106,,2,119.0,0.0,529.0,0,0,1,94606,-187208,11.9499998093
1587293402866262055,30976,1587293402860865106,,2,141.0,0.0,455.0,0,0,1,94605,-187208,11.9499998093
1587293402908233513,30977,1587293402893865106,,2,81.0,0.0,423.0,0,0,1,94606,-187208,11.9499998093
1587293402926962992,30978,1587293402928865106,,2,82.0,0.0,430.0,0,0,1,94605,-187208,11.9499998093
1587293402967252315,30979,1587293402961865106,,2,144.0,0.0,497.0,0,0,1,94606,-187208,11.9499998093
1587293403007113201,30980,1587293402994865106,,2,80.0,0.0,449.0,0,0,1,94605,-187208,11.9499998093
1587293403029945701,30981,1587293403028865106,,2,157.0,0.0,421.0,0,0,1,94605,-187209,11.970000267
1587293403068416482,30982,1587293403061865106,,2,142.0,0.0,495.0,0,0,1,94605,-187208,11.9499998093
1587293403112805649,30983,1587293403097865106,,2,144.0,0.0,437.0,0,0,1,94605,-187209,11.970000267
1587293403154724034,30984,1587293403130865106,,2,81.0,0.0,447.0,0,0,1,94605,-187208,11.970000267
1587293403171724138,30985,1587293403165865106,,2,118.0,0.0,446.0,0,0,1,94605,-187208,11.970000267
1587293403220185284,30986,1587293403198865106,,2,119.0,0.0,508.0,0,0,1,94605,-187208,11.9499998093
1587293403238210180,30987,1587293403234865106,,2,81.0,0.0,449.0,0,0,1,94605,-187208,11.9499998093
1587293403277930753,30988,1587293403267865106,,2,144.0,0.0,420.0,0,0,1,94605,-187209,11.9499998093
1587293403318947367,30989,1587293403315865106,,2,80.0,0.0,427.0,0,0,1,94605,-187208,11.9300003052
1587293403360551638,30990,1587293403348865106,,2,81.0,0.0,406.0,0,0,1,94605,-187208,11.970000267
1587293403402133826,30991,1587293403382865106,,2,141.0,0.0,491.0,0,0,1,94605,-187208,11.970000267
1587293403418692263,30992,1587293403418865106,,2,141.0,0.0,530.0,0,0,1,94605,-187208,11.9499998093
1587293403459700805,30993,1587293403451865106,,2,81.0,0.0,452.0,0,0,1,94605,-187208,11.970000267
1587293403499262263,30994,1587293403497865106,,2,141.0,0.0,523.0,0,0,1,94605,-187208,11.9499998093
1587293403540798148,30995,1587293403530865106,,2,81.0,0.0,471.0,0,0,1,94605,-187208,11.9499998093
1587293403583048878,30996,1587293403561419097,,2,141.0,0.0,519.0,0,0,1,94606,-187208,11.9499998093
1587293403600643721,30997,1587293403596419097,,2,144.0,0.0,543.0,0,0,1,94605,-187209,11.9499998093
1587293403642137471,30998,1587293403629419097,,2,141.0,0.0,467.0,0,0,1,94605,-187208,11.9499998093
1587293403681944190,30999,1587293403662419097,,2,140.0,0.0,429.0,0,0,1,94605,-187208,11.9499998093
1587293403699390023,31000,1587293403697419097,,2,141.0,0.0,438.0,0,0,1,94605,-187208,11.9499998093
1587293403741640909,31001,1587293403730419097,,2,151.0,0.0,504.0,0,0,1,94605,-187208,11.970000267
1587293403783134503,31002,1587293403764419097,,2,142.0,0.0,448.0,0,0,1,94605,-187208,11.9499998093
1587293403799696586,31003,1587293403800419097,,2,81.0,0.0,504.0,0,0,1,94605,-187209,11.970000267
1587293403842694450,31004,1587293403833419097,,2,140.0,0.0,466.0,0,0,1,94605,-187208,11.970000267
1587293403882111638,31005,1587293403867419097,,2,143.0,0.0,425.0,0,0,1,94605,-187208,11.9499998093
1587293403902326273,31006,1587293403903419097,,2,141.0,0.0,502.0,0,0,1,94605,-187208,11.9499998093
1587293403945690909,31007,1587293403936419097,,2,81.0,0.0,538.0,0,0,1,94605,-187208,11.970000267
1587293403985325284,31008,1587293403969419097,,2,81.0,0.0,563.0,0,0,1,94605,-187208,11.970000267
1587293404008491430,31009,1587293404003419097,,2,118.0,0.0,491.0,0,0,1,94606,-187208,11.970000267
1587293404051863304,31010,1587293404036419097,,2,81.0,0.0,445.0,0,0,1,94605,-187208,11.9499998093
1587293404089652419,31011,1587293404070419097,,2,144.0,0.0,440.0,0,0,1,94606,-187208,11.9499998093
1587293404107936794,31012,1587293404105419097,,2,141.0,0.0,425.0,0,0,1,94614,-187205,11.9499998093
1587293404150097107,31013,1587293404139419097,,2,81.0,0.0,487.0,0,0,1,94630,-187193,11.9300003052
1587293404192518565,31014,1587293404172419097,,2,81.0,0.0,474.0,0,0,1,94653,-187174,11.9300003052
1587293404210754763,31015,1587293404204419097,,2,140.0,0.0,445.0,0,0,1,94681,-187151,11.9300003052
1587293404252563513,31016,1587293404238419097,,2,119.0,0.0,424.0,0,0,1,94711,-187123,11.9300003052
1587293404285452627,31017,1587293404286419097,,2,119.0,0.0,429.0,0,0,1,94759,-187080,11.9499998093
1587293404325948044,31018,1587293404320419097,,2,82.0,0.0,445.0,0,0,1,94791,-187047,11.9300003052
1587293404367033148,31019,1587293404353419097,,2,141.0,0.0,506.0,0,0,1,94824,-187016,11.9499998093
1587293404389526898,31020,1587293404385419097,,2,120.0,0.0,467.0,0,0,1,94856,-186984,11.9300003052
1587293404428201117,31021,1587293404419419097,,2,81.0,0.0,519.0,0,0,1,94892,-186951,11.9300003052
1587293404462186742,31022,1587293404454419097,,2,118.0,0.0,453.0,0,0,1,94927,-186915,11.9300003052
1587293404501752575,31023,1587293404488419097,,2,81.0,0.0,509.0,0,0,1,94959,-186881,11.9300003052
1587293404524156586,31024,1587293404522419097,,2,145.0,0.0,532.0,0,0,1,94994,-186847,11.9300003052
1587293404568586481,31025,1587293404555419097,,2,140.0,0.0,487.0,0,0,1,95027,-186815,11.9499998093
1587293404606350283,31026,1587293404588419097,,2,140.0,0.0,455.0,0,0,1,95060,-186783,11.9300003052
1587293404628515544,31027,1587293404627419097,,2,81.0,0.0,511.0,0,0,1,95095,-186745,11.9499998093
1587293404672193565,31028,1587293404661419097,,2,119.0,0.0,559.0,0,0,1,95128,-186713,11.9300003052
1587293404716687731,31029,1587293404694419097,,2,81.0,0.0,542.0,0,0,1,95164,-186680,11.9300003052
1587293404734094502,31030,1587293404730419097,,2,146.0,0.0,466.0,0,0,1,95198,-186644,11.9300003052
1587293404776177367,31031,1587293404763419097,,2,81.0,0.0,432.0,0,0,1,95233,-186613,11.9300003052
1587293404817675960,31032,1587293404797419097,,2,81.0,0.0,418.0,0,0,1,95265,-186580,11.9300003052
1587293404834566169,31033,1587293404830419097,,2,141.0,0.0,400.0,0,0,1,95298,-186548,11.9300003052
1587293404876841638,31034,1587293404863419097,,2,82.0,0.0,405.0,0,0,1,95331,-186515,11.9300003052
1587293404918879710,31035,1587293404912419097,,2,123.0,0.0,425.0,0,0,1,95377,-186466,11.9499998093
1587293404961664085,31036,1587293404945419097,,2,144.0,0.0,404.0,0,0,1,95412,-186435,11.9300003052
1587293405001684190,31037,1587293404979419097,,2,144.0,0.0,419.0,0,0,1,95446,-186401,11.9499998093
1587293405019652835,31038,1587293405015419097,,2,142.0,0.0,497.0,0,0,1,95483,-186364,11.9300003052
1587293405060510283,31039,1587293405048419097,,2,143.0,0.0,447.0,0,0,1,95517,-186331,11.9499998093
1587293405102311690,31040,1587293405082419097,,2,142.0,0.0,424.0,0,0,1,95549,-186299,11.9300003052
1587293405121228669,31041,1587293405115419097,,2,158.0,0.0,403.0,0,0,1,95584,-186268,11.9300003052
1587293405161483200,31042,1587293405148419097,,2,141.0,0.0,430.0,0,0,1,95615,-186235,11.9499998093
1587293405205720856,31043,1587293405197419097,,2,81.0,0.0,457.0,0,0,1,95663,-186188,11.9300003052
1587293405244579137,31044,1587293405230419097,,2,119.0,0.0,444.0,0,0,1,95698,-186155,11.9300003052
1587293405269326169,31045,1587293405264419097,,2,142.0,0.0,504.0,0,0,1,95732,-186122,11.9300003052
1587293405309627367,31046,1587293405297419097,,2,81.0,0.0,536.0,0,0,1,95765,-186087,11.9499998093
1587293405349382367,31047,1587293405331419097,,2,119.0,0.0,563.0,0,0,1,95795,-186055,11.9300003052
1587293405368547991,31048,1587293405363419097,,2,141.0,0.0,494.0,0,0,1,95827,-186024,11.9499998093
1587293405412738825,31049,1587293405396419097,,2,81.0,0.0,466.0,0,0,1,95862,-185990,11.9099998474
1587293405452915596,31050,1587293405430419097,,2,119.0,0.0,422.0,0,0,1,95895,-185958,11.9499998093
1587293405470744346,31051,1587293405465419097,,2,119.0,0.0,404.0,0,0,1,95929,-185921,11.9300003052
1587293405512125179,31052,1587293405498419097,,2,81.0,0.0,401.0,0,0,1,95963,-185887,11.9499998093
1587293405555873460,31053,1587293405547419097,,2,142.0,0.0,437.0,0,0,1,96013,-185840,11.9300003052
1587293405594670439,31054,1587293405580419097,,2,119.0,0.0,509.0,0,0,1,96045,-185807,11.9300003052
1587293405616512991,31055,1587293405614419097,,2,119.0,0.0,470.0,0,0,1,96078,-185774,11.9300003052
1587293405656944293,31056,1587293405647419097,,2,81.0,0.0,429.0,0,0,1,96110,-185740,11.9300003052
1587293405696790543,31057,1587293405681419097,,2,81.0,0.0,497.0,0,0,1,96143,-185708,11.9300003052
1587293405719648616,31058,1587293405715419097,,2,119.0,0.0,438.0,0,0,1,96177,-185675,11.9499998093
1587293405758729762,31059,1587293405748419097,,2,125.0,0.0,419.0,0,0,1,96210,-185641,11.9300003052
1587293405798952314,31060,1587293405781419097,,2,119.0,0.0,411.0,0,0,1,96243,-185606,11.9300003052
1587293405817261950,31061,1587293405817419097,,2,81.0,0.0,401.0,0,0,1,96279,-185569,11.9499998093
1587293405856851845,31062,1587293405850419097,,2,119.0,0.0,406.0,0,0,1,96312,-185536,11.9300003052
1587293405899610127,31063,1587293405884419097,,2,141.0,0.0,408.0,0,0,1,96344,-185502,11.9300003052
1587293405921769866,31064,1587293405917419097,,2,141.0,0.0,401.0,0,0,1,96379,-185470,11.9300003052
1587293405961406220,31065,1587293405950419097,,2,145.0,0.0,420.0,0,0,1,96410,-185436,11.9300003052
1587293405995507731,31066,1587293405987419097,,2,81.0,0.0,485.0,0,0,1,96449,-185399,11.9300003052
1587293406040169606,31067,1587293406020419097,,2,144.0,0.0,440.0,0,0,1,96482,-185365,11.9300003052
1587293406080603772,31068,1587293406075093015,,2,81.0,0.0,414.0,0,0,1,96516,-185330,11.9300003052
1587293406100740283,31069,1587293406110093015,,2,144.0,0.0,411.0,0,0,1,96552,-185295,11.9300003052
1587293406141368252,31070,1587293406143093015,,2,119.0,0.0,441.0,0,0,1,96586,-185263,11.9300003052
1587293406161741897,31071,1587293406181093015,,2,144.0,0.0,426.0,0,0,1,96622,-185224,11.9499998093
1587293406204537262,31072,1587293406214093015,,2,143.0,0.0,430.0,0,0,1,96653,-185192,11.9499998093
1587293406242363252,31073,1587293406247093015,,2,82.0,0.0,439.0,0,0,1,96686,-185159,11.9499998093
1587293406265376064,31074,1587293406285093015,,2,120.0,0.0,506.0,0,0,1,96723,-185120,11.9499998093
1587293406308206741,31075,1587293406318093015,,2,146.0,0.0,528.0,0,0,1,96754,-185085,11.9300003052
1587293406350718199,31076,1587293406351093015,,2,81.0,0.0,547.0,0,0,1,96788,-185052,11.9499998093
1587293406375509189,31077,1587293406384093015,,2,146.0,0.0,458.0,0,0,1,96818,-185021,11.9300003052
1587293406411217887,31078,1587293406417093015,,2,142.0,0.0,514.0,0,0,1,96853,-184987,11.9499998093
1587293406449375335,31079,1587293406467093015,,2,145.0,0.0,548.0,0,0,1,96900,-184937,11.9300003052
1587293406489763356,31080,1587293406500093015,,2,156.0,0.0,465.0,0,0,1,96932,-184904,11.9099998474
1587293406531510856,31081,1587293406533093015,,2,81.0,0.0,430.0,0,0,1,96967,-184872,11.9499998093
1587293406549271272,31082,1587293406566093015,,2,144.0,0.0,419.0,0,0,1,97000,-184838,11.9499998093
1587293406589727939,31083,1587293406599093015,,2,81.0,0.0,426.0,0,0,1,97033,-184804,11.9300003052
1587293406632579137,31084,1587293406632093015,,2,119.0,0.0,403.0,0,0,1,97064,-184770,11.9300003052
1587293406650001949,31085,1587293406665093015,,2,81.0,0.0,424.0,0,0,1,97095,-184740,11.9300003052
1587293406687100595,31086,1587293406698093015,,2,145.0,0.0,401.0,0,0,1,97127,-184705,11.9499998093
1587293406731902158,31087,1587293406742093015,,2,143.0,0.0,430.0,0,0,1,97170,-184662,11.9300003052
1587293406770923512,31088,1587293406775093015,,2,81.0,0.0,432.0,0,0,1,97202,-184627,11.9099998474
1587293406793186168,31089,1587293406812093015,,2,123.0,0.0,418.0,0,0,1,97239,-184592,11.9300003052
1587293406836273876,31090,1587293406845093015,,2,81.0,0.0,404.0,0,0,1,97274,-184558,11.9300003052
1587293406874483147,31091,1587293406878093015,,2,146.0,0.0,485.0,0,0,1,97307,-184526,11.9499998093
1587293406892720178,31092,1587293406913093015,,2,81.0,0.0,456.0,0,0,1,97340,-184492,11.9300003052
1587293406935354241,31093,1587293406946093015,,2,81.0,0.0,422.0,0,0,1,97372,-184458,11.9099998474
1587293406976678772,31094,1587293406979093015,,2,81.0,0.0,405.0,0,0,1,97406,-184426,11.9499998093
1587293407001031480,31095,1587293407015093015,,2,144.0,0.0,418.0,0,0,1,97443,-184391,11.9499998093
1587293407042084501,31096,1587293407048093015,,2,81.0,0.0,388.0,0,0,1,97475,-184356,11.9300003052
1587293407085404137,31097,1587293407087093015,,2,81.0,0.0,483.0,0,0,1,97514,-184317,11.9300003052
1587293407126318980,31098,1587293407120093015,,2,142.0,0.0,434.0,0,0,1,97547,-184284,11.9499998093
1587293407152162939,31099,1587293407155093015,,2,81.0,0.0,438.0,0,0,1,97584,-184251,11.9300003052
1587293407189584605,31100,1587293407188093015,,2,81.0,0.0,431.0,0,0,1,97615,-184217,11.9300003052
1587293407206658512,31101,1587293407227093015,,2,81.0,0.0,501.0,0,0,1,97655,-184179,11.9300003052
1587293407250498355,31102,1587293407260093015,,2,81.0,0.0,447.0,0,0,1,97687,-184147,11.9499998093
1587293407290747314,31103,1587293407294093015,,2,142.0,0.0,526.0,0,0,1,97721,-184113,11.9300003052
1587293407312510178,31104,1587293407331093015,,2,145.0,0.0,450.0,0,0,1,97759,-184075,11.9300003052
1587293407356420751,31105,1587293407364093015,,2,119.0,0.0,418.0,0,0,1,97793,-184042,11.9300003052
1587293407395477678,31106,1587293407398093015,,2,137.0,0.0,403.0,0,0,1,97826,-184009,11.9300003052
1587293407416059449,31107,1587293407435093015,,2,82.0,0.0,421.0,0,0,1,97864,-183972,11.9300003052
1587293407459580647,31108,1587293407468093015,,2,144.0,0.0,408.0,0,0,1,97896,-183937,11.9499998093
1587293407497323772,31109,1587293407502093015,,2,120.0,0.0,487.0,0,0,1,97928,-183906,11.9300003052
1587293407520473199,31110,1587293407536093015,,2,142.0,0.0,458.0,0,0,1,97961,-183871,11.9300003052
1587293407559991793,31111,1587293407569093015,,2,145.0,0.0,420.0,0,0,1,97995,-183837,11.9300003052
1587293407607685855,31112,1587293407602093015,,2,119.0,0.0,402.0,0,0,1,98028,-183803,11.9300003052
1587293407629999761,31113,1587293407640093015,,2,143.0,0.0,403.0,0,0,1,98065,-183767,11.9300003052
1587293407673955074,31114,1587293407673093015,,2,142.0,0.0,421.0,0,0,1,98097,-183735,11.9099998474
1587293407698829345,31115,1587293407717093015,,2,81.0,0.0,416.0,0,0,1,98142,-183692,11.9099998474
1587293407741244084,31116,1587293407750093015,,2,81.0,0.0,395.0,0,0,1,98173,-183658,11.9300003052
1587293407784322522,31117,1587293407784093015,,2,142.0,0.0,476.0,0,0,1,98206,-183627,11.9499998093
1587293407801915386,31118,1587293407818093015,,2,81.0,0.0,431.0,0,0,1,98241,-183593,11.9300003052
1587293407842183980,31119,1587293407851093015,,2,120.0,0.0,426.0,0,0,1,98275,-183559,11.9300003052
1587293407887711116,31120,1587293407898093015,,2,142.0,0.0,508.0,0,0,1,98320,-183512,11.9300003052
1587293407926718563,31121,1587293407931093015,,2,81.0,0.0,533.0,0,0,1,98353,-183481,11.9300003052
1587293407949708511,31122,1587293407968093015,,2,143.0,0.0,481.0,0,0,1,98389,-183445,11.9300003052
1587293407993246428,31123,1587293408002093015,,2,143.0,0.0,438.0,0,0,1,98422,-183411,11.9300003052
1587293408031423043,31124,1587293408035093015,,2,143.0,0.0,437.0,0,0,1,98455,-183376,11.9300003052
1587293408050252209,31125,1587293408070093015,,2,81.0,0.0,417.0,0,0,1,98491,-183342,11.9300003052
1587293408093367261,31126,1587293408104093015,,2,81.0,0.0,440.0,0,0,1,98525,-183310,11.9300003052
1587293408130697522,31127,1587293408137093015,,2,143.0,0.0,422.0,0,0,1,98562,-183277,11.9300003052
1587293408150333303,31128,1587293408170093015,,2,81.0,0.0,426.0,0,0,1,98594,-183245,11.9300003052
1587293408192688511,31129,1587293408204093015,,2,142.0,0.0,404.0,0,0,1,98626,-183213,11.9300003052
1587293408236989240,31130,1587293408237093015,,2,143.0,0.0,498.0,0,0,1,98660,-183181,11.9300003052
1587293408258946167,31131,1587293408273093015,,2,81.0,0.0,522.0,0,0,1,98697,-183145,11.9300003052
1587293408301286688,31132,1587293408307093015,,2,120.0,0.0,450.0,0,0,1,98727,-183113,11.9300003052
1587293408332818459,31133,1587293408347093015,,2,120.0,0.0,430.0,0,0,1,98756,-183087,11.9300003052
1587293408375181063,31134,1587293408381093015,,2,120.0,0.0,435.0,0,0,1,98774,-183077,11.9499998093
1587293408397296792,31135,1587293408414093015,,2,143.0,0.0,418.0,0,0,1,98785,-183073,11.9499998093
1587293408437175386,31136,1587293408447093015,,2,134.0,0.0,426.0,0,0,1,98793,-183074,11.9499998093
1587293408464439136,31137,1587293408481093015,,2,146.0,0.0,494.0,0,0,1,98800,-183073,11.9499998093
1587293408506347730,31138,1587293408515093015,,2,160.0,0.0,432.0,0,0,1,98806,-183073,11.9499998093
1587293408534801740,31139,1587293408547093015,,2,120.0,0.0,497.0,0,0,1,98810,-183074,11.9499998093
1587293408575491740,31140,1587293408585580001,,2,120.0,0.0,446.0,0,0,1,98814,-183073,11.9300003052
1587293408621942522,31141,1587293408618580001,,2,120.0,0.0,454.0,0,0,1,98819,-183074,11.9300003052
1587293408639641271,31142,1587293408654580001,,2,81.0,0.0,440.0,0,0,1,98824,-183076,11.9499998093
1587293408679882417,31143,1587293408688580001,,2,119.0,0.0,500.0,0,0,1,98829,-183079,11.9300003052
1587293408703924449,31144,1587293408723580001,,2,141.0,0.0,464.0,0,0,1,98835,-183083,11.9499998093
1587293408745083511,31145,1587293408757580001,,2,139.0,0.0,428.0,0,0,1,98841,-183087,11.9499998093
1587293408787369396,31146,1587293408790580001,,2,143.0,0.0,410.0,0,0,1,98846,-183093,11.9300003052
1587293408805904292,31147,1587293408824580001,,2,81.0,0.0,484.0,0,0,1,98851,-183097,11.9300003052
1587293408847999553,31148,1587293408858580001,,2,138.0,0.0,433.0,0,0,1,98857,-183103,11.9300003052
1587293408889513251,31149,1587293408907580001,,2,81.0,0.0,425.0,0,0,1,98866,-183110,11.9300003052
1587293408929484188,31150,1587293408941580001,,2,118.0,0.0,493.0,0,0,1,98870,-183115,11.9300003052
1587293408951810230,31151,1587293408974580001,,2,117.0,0.0,438.0,0,0,1,98876,-183120,11.9499998093
1587293408993466323,31152,1587293409008580001,,2,138.0,0.0,453.0,0,0,1,98881,-183126,11.9300003052
1587293409035727834,31153,1587293409041580001,,2,82.0,0.0,441.0,0,0,1,98887,-183132,11.9300003052
1587293409054010594,31154,1587293409075580001,,2,138.0,0.0,417.0,0,0,1,98892,-183138,11.9300003052
1587293409096459813,31155,1587293409109580001,,2,81.0,0.0,482.0,0,0,1,98898,-183144,11.9499998093
1587293409138439344,31156,1587293409142580001,,2,81.0,0.0,459.0,0,0,1,98903,-183150,11.9499998093
1587293409155611740,31157,1587293409176580001,,2,118.0,0.0,415.0,0,0,1,98910,-183156,11.9300003052
1587293409195745490,31158,1587293409209580001,,2,140.0,0.0,435.0,0,0,1,98915,-183160,11.9300003052
1587293409239053303,31159,1587293409255580001,,2,138.0,0.0,418.0,0,0,1,98922,-183166,11.9499998093
1587293409280169292,31160,1587293409289580001,,2,118.0,0.0,427.0,0,0,1,98927,-183170,11.9300003052
1587293409321006688,31161,1587293409322580001,,2,117.0,0.0,399.0,0,0,1,98932,-183175,11.9499998093
1587293409350237990,31162,1587293409355580001,,2,81.0,0.0,418.0,0,0,1,98938,-183181,11.9300003052
1587293409387050855,31163,1587293409388580001,,2,81.0,0.0,417.0,0,0,1,98944,-183187,11.9300003052
1587293409404327730,31164,1587293409426580001,,2,140.0,0.0,491.0,0,0,1,98950,-183194,11.9300003052
1587293409448686896,31165,1587293409460580001,,2,138.0,0.0,436.0,0,0,1,98956,-183200,11.970000267
1587293409485848511,31166,1587293409493580001,,2,121.0,0.0,413.0,0,0,1,98962,-183205,11.9499998093
1587293409503509657,31167,1587293409526580001,,2,81.0,0.0,425.0,0,0,1,98968,-183211,11.9300003052
1587293409547939865,31168,1587293409559580001,,2,81.0,0.0,496.0,0,0,1,98973,-183217,11.9300003052
1587293409587455907,31169,1587293409593580001,,2,81.0,0.0,455.0,0,0,1,98979,-183222,11.9499998093
1587293409605801584,31170,1587293409626580001,,2,161.0,0.0,414.0,0,0,1,98985,-183226,11.9300003052
1587293409647708354,31171,1587293409659580001,,2,119.0,0.0,432.0,0,0,1,98991,-183232,11.9499998093
1587293409686978146,31172,1587293409693580001,,2,139.0,0.0,406.0,0,0,1,98997,-183239,11.9300003052
1587293409705126740,31173,1587293409725580001,,2,82.0,0.0,479.0,0,0,1,99002,-183244,11.9300003052
1587293409747116375,31174,1587293409758580001,,2,138.0,0.0,438.0,0,0,1,99008,-183251,11.9300003052
1587293409789701531,31175,1587293409792580001,,2,81.0,0.0,436.0,0,0,1,99013,-183257,11.9499998093
1587293409807867000,31176,1587293409828580001,,2,127.0,0.0,433.0,0,0,1,99020,-183264,11.9099998474
1587293409849144969,31177,1587293409861580001,,2,138.0,0.0,408.0,0,0,1,99025,-183269,11.9499998093
1587293409889314813,31178,1587293409895580001,,2,81.0,0.0,436.0,0,0,1,99031,-183274,11.9499998093
1587293409907193719,31179,1587293409928580001,,2,118.0,0.0,399.0,0,0,1,99036,-183279,11.9300003052
1587293409949256011,31180,1587293409961580001,,2,138.0,0.0,485.0,0,0,1,99042,-183284,11.9300003052
1587293409989366636,31181,1587293409995580001,,2,118.0,0.0,427.0,0,0,1,99047,-183289,11.9499998093
1587293410006129865,31182,1587293410031580001,,2,82.0,0.0,495.0,0,0,1,99052,-183295,11.9499998093
1587293410048165854,31183,1587293410064580001,,2,81.0,0.0,531.0,0,0,1,99056,-183300,11.9300003052
1587293410089882677,31184,1587293410098580001,,2,136.0,0.0,558.0,0,0,1,99061,-183305,11.9300003052
1587293410110337365,31185,1587293410135580001,,2,117.0,0.0,463.0,0,0,1,99067,-183310,11.9499998093
1587293410154511531,31186,1587293410168580001,,2,125.0,0.0,520.0,0,0,1,99072,-183316,11.9499998093
1587293410192674917,31187,1587293410202580001,,2,118.0,0.0,485.0,0,0,1,99077,-183320,11.9300003052
1587293410209168667,31188,1587293410234580001,,2,117.0,0.0,416.0,0,0,1,99082,-183324,11.9499998093
1587293410254325594,31189,1587293410267580001,,2,140.0,0.0,497.0,0,0,1,99087,-183328,11.9499998093
1587293410292103094,31190,1587293410301580001,,2,137.0,0.0,525.0,0,0,1,99092,-183332,11.9499998093
1587293410315816427,31191,1587293410339580001,,2,81.0,0.0,544.0,0,0,1,99098,-183337,11.9300003052
1587293410359399760,31192,1587293410372580001,,2,82.0,0.0,555.0,0,0,1,99103,-183342,11.9300003052
1587293410398896687,31193,1587293410406580001,,2,118.0,0.0,554.0,0,0,1,99108,-183347,11.9499998093
1587293410417985073,31194,1587293410438580001,,2,81.0,0.0,555.0,0,0,1,99113,-183353,11.9300003052
1587293410460250958,31195,1587293410471580001,,2,81.0,0.0,561.0,0,0,1,99118,-183359,11.9300003052
1587293410499871479,31196,1587293410505580001,,2,81.0,0.0,480.0,0,0,1,99124,-183365,11.9499998093
1587293410517719917,31197,1587293410539580001,,2,118.0,0.0,518.0,0,0,1,99130,-183372,11.9499998093
1587293410560461792,31198,1587293410572580001,,2,136.0,0.0,537.0,0,0,1,99136,-183378,11.9300003052
1587293410603728406,31199,1587293410606580001,,2,158.0,0.0,486.0,0,0,1,99141,-183383,11.9300003052
1587293410620871219,31200,1587293410641580001,,2,81.0,0.0,431.0,0,0,1,99148,-183390,11.9300003052
1587293410664919708,31201,1587293410674580001,,2,136.0,0.0,403.0,0,0,1,99154,-183396,11.9499998093
1587293410704006583,31202,1587293410724580001,,2,81.0,0.0,444.0,0,0,1,99163,-183405,11.9300003052
1587293410742898250,31203,1587293410757580001,,2,137.0,0.0,502.0,0,0,1,99168,-183412,11.9499998093
1587293410788576792,31204,1587293410790580001,,2,118.0,0.0,446.0,0,0,1,99174,-183418,11.9499998093
1587293410805717573,31205,1587293410826580001,,2,81.0,0.0,434.0,0,0,1,99179,-183425,11.9300003052
1587293410847202469,31206,1587293410859580001,,2,172.0,0.0,411.0,0,0,1,99185,-183430,11.9499998093
1587293410887228354,31207,1587293410906580001,,2,117.0,0.0,505.0,0,0,1,99192,-183438,11.9099998474
1587293410928609916,31208,1587293410939580001,,2,81.0,0.0,466.0,0,0,1,99198,-183444,11.9499998093
1587293410974759969,31209,1587293410972580001,,2,81.0,0.0,421.0,0,0,1,99204,-183449,11.9499998093
1587293410992417677,31210,1587293411010580001,,2,135.0,0.0,399.0,0,0,1,99210,-183455,11.9300003052
1587293411035250385,31211,1587293411043580001,,2,134.0,0.0,394.0,0,0,1,99216,-183460,11.9300003052
1587293411068734916,31212,1587293411083855001,,2,81.0,0.0,435.0,0,0,1,99224,-183468,11.9300003052
1587293411114245073,31213,1587293411116855001,,2,82.0,0.0,432.0,0,0,1,99229,-183475,11.9300003052
1587293411155220229,31214,1587293411150855001,,2,118.0,0.0,400.0,0,0,1,99234,-183479,11.9300003052
1587293411177072156,31215,1587293411188855001,,2,81.0,0.0,401.0,0,0,1,99240,-183484,11.9300003052
1587293411223420593,31216,1587293411221855001,,2,81.0,0.0,394.0,0,0,1,99246,-183490,11.9300003052
1587293411269653510,31217,1587293411255855001,,2,135.0,0.0,408.0,0,0,1,99251,-183495,11.9300003052
1587293411289228093,31218,1587293411297855001,,2,136.0,0.0,407.0,0,0,1,99259,-183503,11.9499998093
1587293411329640437,31219,1587293411330855001,,2,135.0,0.0,491.0,0,0,1,99265,-183507,11.9499998093
1587293411368268927,31220,1587293411378855001,,2,135.0,0.0,467.0,0,0,1,99273,-183514,11.9300003052
1587293411412203562,31221,1587293411411855001,,2,136.0,0.0,424.0,0,0,1,99279,-183520,11.9499998093
1587293411454506687,31222,1587293411445855001,,2,81.0,0.0,495.0,0,0,1,99284,-183525,11.9300003052
1587293411473050281,31223,1587293411482855001,,2,136.0,0.0,464.0,0,0,1,99290,-183532,11.9300003052
1587293411516317885,31224,1587293411515855001,,2,137.0,0.0,515.0,0,0,1,99297,-183538,11.9300003052
1587293411556578197,31225,1587293411549855001,,2,82.0,0.0,444.0,0,0,1,99303,-183543,11.9300003052
1587293411574877885,31226,1587293411586855001,,2,137.0,0.0,435.0,0,0,1,99310,-183549,11.9300003052
1587293411619318614,31227,1587293411619855001,,2,142.0,0.0,404.0,0,0,1,99316,-183554,11.9300003052
1587293411660181322,31228,1587293411653855001,,2,81.0,0.0,399.0,0,0,1,99321,-183560,11.9300003052
1587293411677159343,31229,1587293411687855001,,2,137.0,0.0,421.0,0,0,1,99327,-183565,11.9300003052
1587293411720205385,31230,1587293411720855001,,2,137.0,0.0,403.0,0,0,1,99332,-183570,11.9300003052
1587293411762170802,31231,1587293411754855001,,2,117.0,0.0,394.0,0,0,1,99337,-183576,11.9300003052
1587293411780474812,31232,1587293411790855001,,2,118.0,0.0,482.0,0,0,1,99342,-183582,11.9300003052
1587293411826250229,31233,1587293411823855001,,2,81.0,0.0,450.0,0,0,1,99347,-183587,11.9300003052
1587293411867784812,31234,1587293411857855001,,2,137.0,0.0,500.0,0,0,1,99351,-183592,11.9300003052
1587293411888917885,31235,1587293411899855001,,2,139.0,0.0,536.0,0,0,1,99358,-183599,11.9300003052
1587293411929659864,31236,1587293411932855001,,2,81.0,0.0,488.0,0,0,1,99364,-183605,11.9300003052
1587293411969595593,31237,1587293411966855001,,2,136.0,0.0,437.0,0,0,1,99370,-183611,11.9300003052
1587293411993829760,31238,1587293412003855001,,2,135.0,0.0,414.0,0,0,1,99376,-183617,11.9499998093
1587293412035167416,31239,1587293412037855001,,2,136.0,0.0,491.0,0,0,1,99381,-183622,11.9300003052
1587293412079413979,31240,1587293412070855001,,2,116.0,0.0,525.0,0,0,1,99386,-183627,11.9499998093
1587293412096602260,31241,1587293412104855001,,2,116.0,0.0,448.0,0,0,1,99391,-183632,11.9499998093
1587293412138929447,31242,1587293412138855001,,2,132.0,0.0,418.0,0,0,1,99395,-183637,11.9300003052
1587293412182472572,31243,1587293412189855001,,2,118.0,0.0,511.0,0,0,1,99403,-183645,11.9300003052
1587293412224699760,31244,1587293412223855001,,2,82.0,0.0,532.0,0,0,1,99408,-183650,11.9300003052
1587293412267908353,31245,1587293412256855001,,2,116.0,0.0,549.0,0,0,1,99413,-183655,11.9300003052
1587293412284058249,31246,1587293412295855001,,2,122.0,0.0,487.0,0,0,1,99421,-183663,11.9499998093
1587293412330758666,31247,1587293412329855001,,2,117.0,0.0,528.0,0,0,1,99427,-183668,11.9499998093
1587293412373526947,31248,1587293412362855001,,2,116.0,0.0,468.0,0,0,1,99432,-183674,11.9300003052
1587293412391069030,31249,1587293412398855001,,2,132.0,0.0,421.0,0,0,1,99440,-183680,11.9300003052
1587293412433651895,31250,1587293412432855001,,2,121.0,0.0,401.0,0,0,1,99446,-183685,11.9300003052
1587293412475101635,31251,1587293412475855001,,2,131.0,0.0,426.0,0,0,1,99453,-183693,11.9300003052
1587293412514590124,31252,1587293412509855001,,2,82.0,0.0,402.0,0,0,1,99459,-183699,11.9300003052
1587293412532827051,31253,1587293412544855001,,2,81.0,0.0,486.0,0,0,1,99466,-183705,11.9499998093
1587293412578029707,31254,1587293412578855001,,2,81.0,0.0,424.0,0,0,1,99472,-183712,11.9300003052
1587293412618751582,31255,1587293412611855001,,2,131.0,0.0,395.0,0,0,1,99478,-183717,11.9499998093
1587293412636764447,31256,1587293412648855001,,2,134.0,0.0,391.0,0,0,1,99485,-183725,11.9499998093
1587293412677881166,31257,1587293412682855001,,2,81.0,0.0,478.0,0,0,1,99492,-183731,11.9300003052
1587293412720089343,31258,1587293412715855001,,2,132.0,0.0,519.0,0,0,1,99497,-183737,11.9499998093
1587293412737367572,31259,1587293412749855001,,2,132.0,0.0,466.0,0,0,1,99503,-183743,11.9300003052
1587293412780385437,31260,1587293412783855001,,2,131.0,0.0,452.0,0,0,1,99508,-183748,11.9300003052
1587293412822149343,31261,1587293412816855001,,2,131.0,0.0,506.0,0,0,1,99513,-183753,11.9499998093
1587293412840418718,31262,1587293412850855001,,2,82.0,0.0,459.0,0,0,1,99519,-183759,11.9499998093
1587293412884370437,31263,1587293412884855001,,2,82.0,0.0,418.0,0,0,1,99525,-183765,11.9300003052
1587293412924003562,31264,1587293412917855001,,2,81.0,0.0,487.0,0,0,1,99530,-183770,11.9099998474
1587293412945021582,31265,1587293412952855001,,2,138.0,0.0,522.0,0,0,1,99536,-183776,11.9300003052
1587293412988566687,31266,1587293412986855001,,2,81.0,0.0,541.0,0,0,1,99541,-183781,11.9300003052
1587293413027795957,31267,1587293413019855001,,2,130.0,0.0,548.0,0,0,1,99546,-183786,11.9300003052
1587293413047654291,31268,1587293413055855001,,2,130.0,0.0,457.0,0,0,1,99553,-183790,11.9499998093
1587293413088931530,31269,1587293413089855001,,2,131.0,0.0,506.0,0,0,1,99558,-183794,11.9099998474
1587293413131420020,31270,1587293413122855001,,2,81.0,0.0,442.0,0,0,1,99563,-183799,11.9300003052
1587293413148990072,31271,1587293413159855001,,2,81.0,0.0,510.0,0,0,1,99568,-183805,11.9499998093
1587293413194037207,31272,1587293413193855001,,2,131.0,0.0,434.0,0,0,1,99573,-183809,11.9300003052
1587293413235056843,31273,1587293413226855001,,2,131.0,0.0,410.0,0,0,1,99578,-183814,11.9300003052
1587293413252497207,31274,1587293413263855001,,2,130.0,0.0,396.0,0,0,1,99584,-183821,11.9300003052
1587293413298781218,31275,1587293413297855001,,2,81.0,0.0,414.0,0,0,1,99590,-183826,11.9300003052
1587293413339395488,31276,1587293413330855001,,2,81.0,0.0,493.0,0,0,1,99596,-183832,11.9300003052
1587293413357489395,31277,1587293413367855001,,2,119.0,0.0,431.0,0,0,1,99602,-183838,11.9099998474
1587293413401139968,31278,1587293413401855001,,2,132.0,0.0,405.0,0,0,1,99608,-183842,11.9300003052
1587293413442778405,31279,1587293413434855001,,2,132.0,0.0,387.0,0,0,1,99613,-183847,11.9300003052
1587293413460067051,31280,1587293413470855001,,2,81.0,0.0,390.0,0,0,1,99619,-183853,11.9499998093
1587293413501601218,31281,1587293413504855001,,2,115.0,0.0,407.0,0,0,1,99624,-183858,11.9499998093
1587293413545834343,31282,1587293413537855001,,2,81.0,0.0,391.0,0,0,1,99630,-183864,11.9300003052
1587293413562504499,31283,1587293413584637958,,2,133.0,0.0,491.0,0,0,1,99636,-183871,11.9499998093
1587293413607434395,31284,1587293413618637958,,2,134.0,0.0,519.0,0,0,1,99642,-183878,11.9300003052
1587293413647089082,31285,1587293413651637958,,2,81.0,0.0,447.0,0,0,1,99647,-183885,11.9499998093
1587293413670227624,31286,1587293413690637958,,2,81.0,0.0,425.0,0,0,1,99654,-183891,11.9300003052
1587293413714391113,31287,1587293413724637958,,2,81.0,0.0,492.0,0,0,1,99659,-183897,11.9300003052
1587293413755195905,31288,1587293413757637958,,2,81.0,0.0,525.0,0,0,1,99665,-183903,11.9300003052
1587293413774981426,31289,1587293413793637958,,2,141.0,0.0,547.0,0,0,1,99671,-183908,11.9300003052
1587293413817137728,31290,1587293413827637958,,2,137.0,0.0,462.0,0,0,1,99676,-183913,11.9300003052
1587293413857002884,31291,1587293413860637958,,2,118.0,0.0,425.0,0,0,1,99681,-183919,11.9300003052
1587293413874112259,31292,1587293413896637958,,2,81.0,0.0,430.0,0,0,1,99687,-183925,11.9499998093
1587293413916199342,31293,1587293413930637958,,2,143.0,0.0,414.0,0,0,1,99691,-183931,11.9300003052
1587293413957821374,31294,1587293413963637958,,2,81.0,0.0,402.0,0,0,1,99696,-183937,11.9300003052
1587293413980456738,31295,1587293414001637958,,2,141.0,0.0,406.0,0,0,1,99704,-183944,11.9300003052
1587293414027745592,31296,1587293414034637958,,2,81.0,0.0,495.0,0,0,1,99709,-183950,11.9300003052
1587293414067422936,31297,1587293414068637958,,2,81.0,0.0,457.0,0,0,1,99714,-183954,11.9300003052
1587293414086885540,31298,1587293414104637958,,2,82.0,0.0,434.0,0,0,1,99721,-183959,11.9300003052
1587293414127754603,31299,1587293414137637958,,2,120.0,0.0,500.0,0,0,1,99726,-183964,11.9300003052
1587293414171971478,31300,1587293414186637958,,2,81.0,0.0,544.0,0,0,1,99734,-183971,11.9300003052
1587293414214650801,31301,1587293414219637958,,2,142.0,0.0,488.0,0,0,1,99739,-183978,11.9300003052
1587293414237853457,31302,1587293414257637958,,2,81.0,0.0,441.0,0,0,1,99746,-183984,11.9300003052
1587293414281270592,31303,1587293414290637958,,2,142.0,0.0,423.0,0,0,1,99752,-183991,11.9300003052
1587293414320079967,31304,1587293414329637958,,2,145.0,0.0,433.0,0,0,1,99759,-183998,11.9099998474
1587293414359554863,31305,1587293414362637958,,2,142.0,0.0,492.0,0,0,1,99766,-184004,11.9300003052
1587293414385086842,31306,1587293414397637958,,2,81.0,0.0,522.0,0,0,1,99772,-184010,11.9300003052
1587293414423628509,31307,1587293414430637958,,2,146.0,0.0,474.0,0,0,1,99778,-184015,11.9300003052
1587293414462649238,31308,1587293414463637958,,2,143.0,0.0,438.0,0,0,1,99784,-184020,11.9300003052
1587293414483075644,31309,1587293414497637958,,2,119.0,0.0,506.0,0,0,1,99790,-184026,11.9300003052
1587293414524459030,31310,1587293414530637958,,2,143.0,0.0,527.0,0,0,1,99795,-184031,11.9099998474
1587293414547192988,31311,1587293414571637958,,2,128.0,0.0,488.0,0,0,1,99802,-184038,11.9300003052
1587293414588251634,31312,1587293414604637958,,2,142.0,0.0,439.0,0,0,1,99808,-184044,11.9499998093
1587293414630110071,31313,1587293414638637958,,2,81.0,0.0,442.0,0,0,1,99813,-184049,11.9499998093
1587293414652953509,31314,1587293414676637958,,2,142.0,0.0,510.0,0,0,1,99819,-184056,11.9499998093
1587293414695049759,31315,1587293414709637958,,2,81.0,0.0,462.0,0,0,1,99824,-184062,11.9300003052
1587293414739106894,31316,1587293414743637958,,2,146.0,0.0,418.0,0,0,1,99829,-184066,11.9300003052
1587293414760307780,31317,1587293414778637958,,2,145.0,0.0,408.0,0,0,1,99835,-184071,11.9300003052
1587293414802292623,31318,1587293414811637958,,2,120.0,0.0,403.0,0,0,1,99839,-184076,11.9300003052
1587293414830255175,31319,1587293414849637958,,2,81.0,0.0,432.0,0,0,1,99845,-184081,11.9300003052
1587293414868845332,31320,1587293414882637958,,2,81.0,0.0,491.0,0,0,1,99849,-184087,11.9300003052
1587293414896129446,31321,1587293414917637958,,2,81.0,0.0,438.0,0,0,1,99854,-184092,11.9499998093
1587293414936595175,31322,1587293414951637958,,2,81.0,0.0,437.0,0,0,1,99859,-184098,11.9300003052
1587293414977195696,31323,1587293414984637958,,2,145.0,0.0,449.0,0,0,1,99864,-184103,11.9300003052
1587293414995346790,31324,1587293415018637958,,2,145.0,0.0,403.0,0,0,1,99869,-184108,11.9300003052
1587293415038991425,31325,1587293415051637958,,2,142.0,0.0,434.0,0,0,1,99873,-184113,11.9300003052
1587293415081041998,31326,1587293415085637958,,2,145.0,0.0,495.0,0,0,1,99879,-184118,11.9300003052
1587293415103104029,31327,1587293415125637958,,2,141.0,0.0,453.0,0,0,1,99886,-184124,11.9300003052
1587293415146541842,31328,1587293415158637958,,2,118.0,0.0,501.0,0,0,1,99892,-184129,11.9300003052
1587293415186343509,31329,1587293415192637958,,2,81.0,0.0,445.0,0,0,1,99898,-184134,11.9300003052
1587293415208380748,31330,1587293415226637958,,2,142.0,0.0,446.0,0,0,1,99903,-184140,11.9300003052
1587293415245858248,31331,1587293415259637958,,2,81.0,0.0,505.0,0,0,1,99909,-184145,11.9300003052
1587293415288384290,31332,1587293415292637958,,2,119.0,0.0,448.0,0,0,1,99914,-184151,11.9099998474
1587293415309581269,31333,1587293415330637958,,2,142.0,0.0,444.0,0,0,1,99920,-184159,11.9099998474
1587293415351939186,31334,1587293415363637958,,2,143.0,0.0,442.0,0,0,1,99926,-184164,11.9499998093
1587293415392036217,31335,1587293415397637958,,2,81.0,0.0,503.0,0,0,1,99932,-184170,11.9300003052
1587293415409505331,31336,1587293415431637958,,2,81.0,0.0,454.0,0,0,1,99941,-184174,11.9300003052
1587293415455321529,31337,1587293415464637958,,2,81.0,0.0,422.0,0,0,1,99957,-184174,11.9300003052
1587293415496780592,31338,1587293415498637958,,2,81.0,0.0,411.0,0,0,1,99978,-184166,11.9300003052
1587293415512002727,31339,1587293415535637958,,2,81.0,0.0,429.0,0,0,1,100006,-184147,11.9300003052
1587293415556723717,31340,1587293415568637958,,2,152.0,0.0,416.0,0,0,1,100036,-184124,11.9300003052
1587293415596686217,31341,1587293415602637958,,2,121.0,0.0,409.0,0,0,1,100066,-184097,11.9099998474
1587293415614939967,31342,1587293415636637958,,2,81.0,0.0,416.0,0,0,1,100101,-184066,11.9300003052
1587293415657142519,31343,1587293415669637958,,2,81.0,0.0,408.0,0,0,1,100135,-184035,11.9300003052
1587293415698915956,31344,1587293415703637958,,2,147.0,0.0,407.0,0,0,1,100167,-184004,11.9300003052
1587293415716029290,31345,1587293415739637958,,2,150.0,0.0,407.0,0,0,1,100202,-183967,11.9300003052
1587293415759239133,31346,1587293415772637958,,2,80.0,0.0,493.0,0,0,1,100236,-183933,11.9099998474
1587293415799579185,31347,1587293415806637958,,2,146.0,0.0,521.0,0,0,1,100270,-183901,11.9099998474
1587293415821557571,31348,1587293415843637958,,2,150.0,0.0,471.0,0,0,1,100307,-183863,11.9300003052
1587293415865936790,31349,1587293415876637958,,2,145.0,0.0,451.0,0,0,1,100342,-183830,11.9300003052
1587293415905378404,31350,1587293415910637958,,2,82.0,0.0,427.0,0,0,1,100374,-183795,11.9099998474
1587293415925107831,31351,1587293415943637958,,2,81.0,0.0,414.0,0,0,1,100407,-183764,11.9300003052
1587293415968424029,31352,1587293415977637958,,2,145.0,0.0,492.0,0,0,1,100439,-183731,11.9099998474
1587293416015018612,31353,1587293416010637958,,2,144.0,0.0,437.0,0,0,1,100472,-183699,11.9300003052
1587293416034465227,31354,1587293416053637958,,2,144.0,0.0,451.0,0,0,1,100514,-183656,11.9300003052
1587293416080782727,31355,1587293416064193090,,2,153.0,0.0,425.0,0,0,1,100548,-183624,11.9300003052
1587293416121512987,31356,1587293416097193090,,2,145.0,0.0,411.0,0,0,1,100580,-183591,11.9300003052
1587293416139450071,31357,1587293416138193090,,2,146.0,0.0,417.0,0,0,1,100623,-183549,11.9300003052
1587293416182727154,31358,1587293416172193090,,2,123.0,0.0,402.0,0,0,1,100656,-183516,11.9300003052
1587293416222144654,31359,1587293416205193090,,2,145.0,0.0,401.0,0,0,1,100689,-183485,11.9300003052
1587293416242950904,31360,1587293416240193090,,2,81.0,0.0,484.0,0,0,1,100723,-183450,11.9300003052
1587293416285088560,31361,1587293416274193090,,2,82.0,0.0,455.0,0,0,1,100754,-183417,11.9300003052
1587293416325817258,31362,1587293416307193090,,2,81.0,0.0,430.0,0,0,1,100787,-183383,11.9300003052
1587293416343561425,31363,1587293416341193090,,2,148.0,0.0,412.0,0,0,1,100823,-183349,11.9300003052
1587293416385191737,31364,1587293416375193090,,2,121.0,0.0,409.0,0,0,1,100854,-183316,11.9300003052
1587293416426432675,31365,1587293416408193090,,2,122.0,0.0,484.0,0,0,1,100887,-183283,11.9300003052
1587293416443431008,31366,1587293416444193090,,2,145.0,0.0,440.0,0,0,1,100922,-183248,11.9300003052
1587293416488184758,31367,1587293416478193090,,2,120.0,0.0,444.0,0,0,1,100956,-183215,11.9300003052
1587293416527982258,31368,1587293416511193090,,2,120.0,0.0,423.0,0,0,1,100988,-183184,11.9300003052
1587293416551930748,31369,1587293416548193090,,2,81.0,0.0,435.0,0,0,1,101023,-183147,11.9300003052
1587293416595058612,31370,1587293416582193090,,2,120.0,0.0,437.0,0,0,1,101057,-183113,11.9300003052
1587293416644222154,31371,1587293416615193090,,2,120.0,0.0,422.0,0,0,1,101094,-183079,11.9099998474
1587293416663700591,31372,1587293416658193090,,2,151.0,0.0,431.0,0,0,1,101136,-183036,11.9300003052
1587293416706203300,31373,1587293416692193090,,2,82.0,0.0,440.0,0,0,1,101167,-183004,11.9300003052
1587293416752460018,31374,1587293416725193090,,2,171.0,0.0,413.0,0,0,1,101199,-182972,11.9300003052
1587293416768451008,31375,1587293416766193090,,2,146.0,0.0,417.0,0,0,1,101240,-182932,11.9300003052
1587293416813451737,31376,1587293416800193090,,2,149.0,0.0,409.0,0,0,1,101272,-182899,11.9300003052
1587293416853589550,31377,1587293416833193090,,2,81.0,0.0,427.0,0,0,1,101304,-182867,11.9300003052
1587293416872302883,31378,1587293416870193090,,2,81.0,0.0,431.0,0,0,1,101341,-182830,11.9300003052
1587293416915451060,31379,1587293416904193090,,2,146.0,0.0,439.0,0,0,1,101374,-182797,11.9099998474
1587293416956108664,31380,1587293416937193090,,2,81.0,0.0,413.0,0,0,1,101409,-182765,11.9099998474
1587293416974081372,31381,1587293416971193090,,2,82.0,0.0,498.0,0,0,1,101441,-182732,11.9300003052
1587293417016349289,31382,1587293417005193090,,2,150.0,0.0,441.0,0,0,1,101475,-182699,11.9099998474
1587293417059719758,31383,1587293417038193090,,2,144.0,0.0,450.0,0,0,1,101507,-182667,11.9099998474
1587293417077224914,31384,1587293417074193090,,2,148.0,0.0,425.0,0,0,1,101546,-182632,11.9099998474
1587293417119331893,31385,1587293417108193090,,2,121.0,0.0,412.0,0,0,1,101578,-182598,11.9300003052
1587293417161588039,31386,1587293417141193090,,2,120.0,0.0,428.0,0,0,1,101612,-182565,11.9300003052
1587293417179253716,31387,1587293417177193090,,2,81.0,0.0,492.0,0,0,1,101649,-182529,11.9300003052
1587293417223465487,31388,1587293417211193090,,2,121.0,0.0,526.0,0,0,1,101683,-182497,11.9300003052
1587293417264562727,31389,1587293417244193090,,2,146.0,0.0,483.0,0,0,1,101716,-182466,11.9300003052
1587293417281730956,31390,1587293417281193090,,2,145.0,0.0,527.0,0,0,1,101753,-182428,11.9300003052
1587293417326431112,31391,1587293417315193090,,2,121.0,0.0,538.0,0,0,1,101786,-182396,11.9099998474
1587293417367976789,31392,1587293417348193090,,2,145.0,0.0,471.0,0,0,1,101818,-182365,11.9300003052
1587293417385750695,31393,1587293417382193090,,2,81.0,0.0,458.0,0,0,1,101852,-182330,11.9300003052
1587293417428514810,31394,1587293417416193090,,2,120.0,0.0,453.0,0,0,1,101887,-182297,11.9099998474
1587293417468930435,31395,1587293417449193090,,2,150.0,0.0,421.0,0,0,1,101920,-182263,11.9300003052
1587293417486043299,31396,1587293417485193090,,2,81.0,0.0,419.0,0,0,1,101956,-182227,11.9300003052
1587293417530566945,31397,1587293417519193090,,2,121.0,0.0,421.0,0,0,1,101989,-182195,11.9300003052
1587293417570051060,31398,1587293417552193090,,2,81.0,0.0,413.0,0,0,1,102021,-182163,11.9099998474
1587293417591889862,31399,1587293417590193090,,2,82.0,0.0,428.0,0,0,1,102059,-182123,11.9499998093
1587293417634923247,31400,1587293417624193090,,2,121.0,0.0,409.0,0,0,1,102094,-182089,11.9300003052
1587293417675519341,31401,1587293417657193090,,2,81.0,0.0,429.0,0,0,1,102126,-182056,11.9300003052
1587293417693999601,31402,1587293417690193090,,2,121.0,0.0,492.0,0,0,1,102159,-182024,11.9099998474
1587293417737667935,31403,1587293417724193090,,2,147.0,0.0,448.0,0,0,1,102191,-181991,11.9300003052
1587293417780605643,31404,1587293417757193090,,2,81.0,0.0,417.0,0,0,1,102225,-181959,11.9300003052
1587293417798714133,31405,1587293417793193090,,2,81.0,0.0,428.0,0,0,1,102261,-181924,11.9099998474
1587293417843549080,31406,1587293417827193090,,2,121.0,0.0,439.0,0,0,1,102291,-181891,11.9300003052
1587293417883353924,31407,1587293417880193090,,2,159.0,0.0,441.0,0,0,1,102346,-181837,11.9099998474
1587293417925445799,31408,1587293417914193090,,2,82.0,0.0,422.0,0,0,1,102381,-181803,11.9300003052
1587293417951743508,31409,1587293417948193090,,2,81.0,0.0,496.0,0,0,1,102414,-181768,11.9099998474
1587293417989208039,31410,1587293417981193090,,2,121.0,0.0,469.0,0,0,1,102447,-181736,11.9099998474
1587293418032363924,31411,1587293418015193090,,2,82.0,0.0,515.0,0,0,1,102480,-181703,11.9300003052
1587293418049154445,31412,1587293418051193090,,2,151.0,0.0,541.0,0,0,1,102517,-181667,11.9300003052
1587293418093526945,31413,1587293418085193090,,2,152.0,0.0,554.0,0,0,1,102549,-181633,11.9300003052
1587293418134642466,31414,1587293418118193090,,2,152.0,0.0,477.0,0,0,1,102583,-181601,11.9300003052
1587293418157606060,31415,1587293418157193090,,2,81.0,0.0,448.0,0,0,1,102623,-181561,11.9300003052
1587293418200197570,31416,1587293418191193090,,2,122.0,0.0,430.0,0,0,1,102658,-181527,11.9300003052
1587293418243439028,31417,1587293418224193090,,2,81.0,0.0,496.0,0,0,1,102692,-181494,11.9099998474
1587293418262750382,31418,1587293418258193090,,2,147.0,0.0,462.0,0,0,1,102725,-181460,11.9099998474
1587293418305369237,31419,1587293418291193090,,2,81.0,0.0,447.0,0,0,1,102758,-181426,11.9099998474
1587293418351036789,31420,1587293418325193090,,2,81.0,0.0,424.0,0,0,1,102792,-181393,11.9099998474
1587293418366924080,31421,1587293418367193090,,2,147.0,0.0,422.0,0,0,1,102834,-181352,11.9300003052
1587293418412608768,31422,1587293418401193090,,2,148.0,0.0,449.0,0,0,1,102867,-181316,11.9300003052
1587293418451770747,31423,1587293418434193090,,2,82.0,0.0,414.0,0,0,1,102900,-181283,11.9300003052
1587293418470236007,31424,1587293418470193090,,2,81.0,0.0,434.0,0,0,1,102936,-181244,11.9099998474
1587293418511391268,31425,1587293418503193090,,2,148.0,0.0,499.0,0,0,1,102968,-181211,11.9099998474
1587293418554475591,31426,1587293418537193090,,2,148.0,0.0,464.0,0,0,1,103001,-181179,11.9099998474
1587293418572740955,31427,1587293418570193090,,2,148.0,0.0,448.0,0,0,1,103034,-181145,11.9300003052
1587293418616876059,31428,1587293418617011997,,2,121.0,0.0,433.0,0,0,1,103067,-181112,11.9099998474
1587293418658433351,31429,1587293418651011997,,2,153.0,0.0,498.0,0,0,1,103100,-181080,11.9300003052
1587293418675748664,31430,1587293418688011997,,2,81.0,0.0,477.0,0,0,1,103136,-181044,11.9300003052
1587293418718758872,31431,1587293418721011997,,2,81.0,0.0,458.0,0,0,1,103170,-181009,11.9300003052
1587293418760995643,31432,1587293418755011997,,2,148.0,0.0,434.0,0,0,1,103203,-180975,11.9300003052
1587293418784090434,31433,1587293418793011997,,2,121.0,0.0,448.0,0,0,1,103240,-180937,11.8900003433
1587293418829355070,31434,1587293418826011997,,2,148.0,0.0,446.0,0,0,1,103271,-180904,11.9099998474
1587293418862907882,31435,1587293418867011997,,2,122.0,0.0,508.0,0,0,1,103311,-180863,11.9099998474
1587293418902673038,31436,1587293418900011997,,2,154.0,0.0,537.0,0,0,1,103344,-180829,11.9099998474
1587293418926268455,31437,1587293418936011997,,2,148.0,0.0,494.0,0,0,1,103379,-180794,11.9099998474
1587293418970871840,31438,1587293418969011997,,2,81.0,0.0,448.0,0,0,1,103411,-180760,11.9099998474
1587293418997376840,31439,1587293419008011997,,2,174.0,0.0,431.0,0,0,1,103450,-180719,11.9099998474
1587293419040133038,31440,1587293419042011997,,2,123.0,0.0,497.0,0,0,1,103485,-180685,11.9300003052
1587293419062758715,31441,1587293419075011997,,2,81.0,0.0,534.0,0,0,1,103519,-180653,11.9099998474
1587293419102782830,31442,1587293419108011997,,2,81.0,0.0,467.0,0,0,1,103549,-180619,11.9300003052
1587293419146157830,31443,1587293419142011997,,2,148.0,0.0,456.0,0,0,1,103583,-180586,11.9099998474
1587293419162261476,31444,1587293419175011997,,2,155.0,0.0,435.0,0,0,1,103618,-180552,11.9099998474
1587293419205309080,31445,1587293419208011997,,2,150.0,0.0,455.0,0,0,1,103653,-180518,11.9499998093
1587293419246597309,31446,1587293419242011997,,2,150.0,0.0,419.0,0,0,1,103686,-180485,11.9300003052
1587293419270491632,31447,1587293419279011997,,2,81.0,0.0,414.0,0,0,1,103723,-180449,11.9300003052
1587293419312639653,31448,1587293419312011997,,2,149.0,0.0,453.0,0,0,1,103756,-180416,11.9300003052
1587293419351348819,31449,1587293419352011997,,2,81.0,0.0,507.0,0,0,1,103796,-180377,11.9300003052
1587293419390959549,31450,1587293419385011997,,2,123.0,0.0,458.0,0,0,1,103827,-180344,11.9300003052
1587293419412820538,31451,1587293419420011997,,2,122.0,0.0,441.0,0,0,1,103862,-180311,11.9300003052
1587293419454359028,31452,1587293419453011997,,2,156.0,0.0,424.0,0,0,1,103896,-180278,11.9099998474
1587293419491750955,31453,1587293419486011997,,2,152.0,0.0,434.0,0,0,1,103930,-180243,11.9300003052
1587293419510714653,31454,1587293419521011997,,2,158.0,0.0,441.0,0,0,1,103965,-180208,11.9499998093
1587293419554971736,31455,1587293419554011997,,2,81.0,0.0,507.0,0,0,1,103996,-180175,11.9300003052
1587293419594850069,31456,1587293419588011997,,2,81.0,0.0,473.0,0,0,1,104029,-180142,11.9300003052
1587293419613109809,31457,1587293419623011997,,2,122.0,0.0,456.0,0,0,1,104065,-180107,11.9099998474
1587293419655832049,31458,1587293419656011997,,2,82.0,0.0,430.0,0,0,1,104099,-180074,11.9300003052
1587293419696105434,31459,1587293419690011997,,2,151.0,0.0,424.0,0,0,1,104131,-180041,11.9099998474
1587293419713783142,31460,1587293419725011997,,2,123.0,0.0,431.0,0,0,1,104167,-180005,11.9300003052
1587293419756590799,31461,1587293419758011997,,2,128.0,0.0,427.0,0,0,1,104200,-179972,11.9099998474
1587293419798800538,31462,1587293419792011997,,2,81.0,0.0,432.0,0,0,1,104234,-179940,11.9300003052
1587293419815395746,31463,1587293419828011997,,2,152.0,0.0,426.0,0,0,1,104270,-179904,11.9099998474
1587293419860706111,31464,1587293419862011997,,2,82.0,0.0,419.0,0,0,1,104301,-179871,11.9300003052
1587293419900062726,31465,1587293419895011997,,2,81.0,0.0,431.0,0,0,1,104333,-179838,11.9300003052
1587293419917979080,31466,1587293419931011997,,2,152.0,0.0,429.0,0,0,1,104369,-179803,11.9300003052
1587293419959671423,31467,1587293419965011997,,2,150.0,0.0,493.0,0,0,1,104402,-179769,11.9099998474
1587293419998634288,31468,1587293419998011997,,2,162.0,0.0,455.0,0,0,1,104437,-179736,11.9300003052
1587293420017177048,31469,1587293420030011997,,2,81.0,0.0,436.0,0,0,1,104469,-179701,11.9300003052
1587293420060270746,31470,1587293420064011997,,2,123.0,0.0,428.0,0,0,1,104502,-179669,11.9300003052
1587293420101682673,31471,1587293420097011997,,2,81.0,0.0,491.0,0,0,1,104534,-179637,11.9300003052
1587293420119483038,31472,1587293420133011997,,2,153.0,0.0,456.0,0,0,1,104571,-179601,11.9300003052
1587293420167146111,31473,1587293420167011997,,2,81.0,0.0,429.0,0,0,1,104604,-179566,11.9300003052
1587293420209167465,31474,1587293420200011997,,2,154.0,0.0,498.0,0,0,1,104638,-179535,11.9300003052
1587293420232164757,31475,1587293420241011997,,2,163.0,0.0,472.0,0,0,1,104678,-179494,11.9300003052
1587293420274954600,31476,1587293420275011997,,2,155.0,0.0,444.0,0,0,1,104711,-179460,11.9099998474
1587293420311249965,31477,1587293420316011997,,2,82.0,0.0,444.0,0,0,1,104754,-179418,11.9499998093
1587293420357631319,31478,1587293420350011997,,2,81.0,0.0,434.0,0,0,1,104787,-179386,11.9099998474
1587293420374704496,31479,1587293420383011997,,2,154.0,0.0,430.0,0,0,1,104818,-179354,11.9300003052
1587293420415783194,31480,1587293420417011997,,2,124.0,0.0,429.0,0,0,1,104849,-179322,11.9300003052
1587293420446787934,31481,1587293420464011997,,2,124.0,0.0,436.0,0,0,1,104899,-179273,11.9099998474
1587293420497361996,31482,1587293420498011997,,2,81.0,0.0,502.0,0,0,1,104932,-179239,11.9300003052
1587293420536667621,31483,1587293420531011997,,2,157.0,0.0,525.0,0,0,1,104964,-179207,11.9300003052
1587293420560103090,31484,1587293420571011997,,2,165.0,0.0,479.0,0,0,1,105003,-179168,11.9099998474
1587293420604410329,31485,1587293420605011997,,2,125.0,0.0,469.0,0,0,1,105036,-179135,11.9300003052
1587293420646843454,31486,1587293420638011997,,2,156.0,0.0,463.0,0,0,1,105069,-179104,11.9300003052
1587293420666643454,31487,1587293420675011997,,2,125.0,0.0,444.0,0,0,1,105105,-179067,11.9099998474
1587293420713603402,31488,1587293420709011997,,2,156.0,0.0,452.0,0,0,1,105137,-179035,11.9099998474
1587293420750562829,31489,1587293420762011997,,2,158.0,0.0,457.0,0,0,1,105193,-178981,11.9099998474
1587293420792448090,31490,1587293420796011997,,2,157.0,0.0,457.0,0,0,1,105225,-178948,11.9300003052
1587293420832327777,31491,1587293420829011997,,2,81.0,0.0,510.0,0,0,1,105258,-178916,11.9099998474
1587293420849658819,31492,1587293420864011997,,2,81.0,0.0,540.0,0,0,1,105292,-178882,11.8900003433
1587293420892457621,31493,1587293420898011997,,2,126.0,0.0,551.0,0,0,1,105323,-178849,11.9499998093
1587293420930265798,31494,1587293420931011997,,2,166.0,0.0,555.0,0,0,1,105357,-178817,11.9300003052
1587293420953905225,31495,1587293420966011997,,2,127.0,0.0,490.0,0,0,1,105392,-178782,11.9300003052
1587293420996790538,31496,1587293421000011997,,2,134.0,0.0,471.0,0,0,1,105424,-178749,11.9300003052
1587293421037865277,31497,1587293421033011997,,2,159.0,0.0,449.0,0,0,1,105457,-178716,11.9300003052
1587293421057641215,31498,1587293421068011997,,2,126.0,0.0,509.0,0,0,1,105493,-178681,11.9099998474
1587293421098922985,31499,1587293421086608966,,2,159.0,0.0,466.0,0,0,1,105526,-178649,11.9099998474
1587293421141336371,31500,1587293421119608966,,2,81.0,0.0,469.0,0,0,1,105557,-178618,11.9300003052
1587293421159106892,31501,1587293421153608966,,2,81.0,0.0,448.0,0,0,1,105592,-178584,11.9300003052
1587293421202040329,31502,1587293421187608966,,2,158.0,0.0,432.0,0,0,1,105625,-178552,11.9300003052
1587293421239746319,31503,1587293421235608966,,2,171.0,0.0,456.0,0,0,1,105674,-178506,11.9300003052
1587293421280383975,31504,1587293421269608966,,2,169.0,0.0,513.0,0,0,1,105707,-178472,11.9300003052
1587293421323860746,31505,1587293421302608966,,2,81.0,0.0,468.0,0,0,1,105742,-178439,11.9099998474
1587293421343029079,31506,1587293421338608966,,2,161.0,0.0,449.0,0,0,1,105779,-178403,11.9300003052
1587293421388295173,31507,1587293421372608966,,2,171.0,0.0,442.0,0,0,1,105811,-178370,11.9099998474
1587293421427338819,31508,1587293421405608966,,2,176.0,0.0,497.0,0,0,1,105846,-178337,11.9300003052
1587293421445048037,31509,1587293421440608966,,2,165.0,0.0,484.0,0,0,1,105880,-178301,11.9300003052
1587293421489816110,31510,1587293421474608966,,2,81.0,0.0,468.0,0,0,1,105914,-178269,11.9300003052
1587293421531696371,31511,1587293421507608966,,2,81.0,0.0,442.0,0,0,1,105947,-178236,11.9300003052
1587293421550277256,31512,1587293421543608966,,2,81.0,0.0,455.0,0,0,1,105984,-178200,11.9099998474
1587293421590503142,31513,1587293421577608966,,2,81.0,0.0,513.0,0,0,1,106018,-178166,11.9300003052
1587293421634699287,31514,1587293421625608966,,2,81.0,0.0,506.0,0,0,1,106066,-178118,11.9300003052
1587293421676223506,31515,1587293421659608966,,2,128.0,0.0,534.0,0,0,1,106097,-178086,11.9099998474
1587293421699782829,31516,1587293421694608966,,2,174.0,0.0,473.0,0,0,1,106133,-178052,11.9099998474
1587293421744538089,31517,1587293421728608966,,2,164.0,0.0,471.0,0,0,1,106166,-178018,11.9300003052
1587293421785474496,31518,1587293421761608966,,2,134.0,0.0,517.0,0,0,1,106201,-177985,11.9099998474
1587293421803563194,31519,1587293421798608966,,2,81.0,0.0,471.0,0,0,1,106237,-177949,11.9099998474
1587293421846370902,31520,1587293421832608966,,2,82.0,0.0,473.0,0,0,1,106269,-177915,11.9099998474
1587293421886330589,31521,1587293421865608966,,2,81.0,0.0,462.0,0,0,1,106302,-177882,11.9099998474
1587293421904897725,31522,1587293421903608966,,2,176.0,0.0,466.0,0,0,1,106341,-177845,11.9099998474
1587293421948146423,31523,1587293421937608966,,2,177.0,0.0,464.0,0,0,1,106372,-177812,11.9300003052
1587293421988176839,31524,1587293421970608966,,2,81.0,0.0,450.0,0,0,1,106406,-177780,11.9300003052
1587293422011962777,31525,1587293422006608966,,2,178.0,0.0,445.0,0,0,1,106442,-177742,11.9300003052
1587293422053100225,31526,1587293422040608966,,2,165.0,0.0,452.0,0,0,1,106476,-177708,11.9099998474
1587293422094077568,31527,1587293422073608966,,2,179.0,0.0,447.0,0,0,1,106509,-177676,11.9300003052
1587293422112064235,31528,1587293422107608966,,2,81.0,0.0,462.0,0,0,1,106543,-177642,11.9099998474
1587293422154732152,31529,1587293422141608966,,2,167.0,0.0,464.0,0,0,1,106575,-177609,11.9099998474
1587293422201374756,31530,1587293422174608966,,2,82.0,0.0,451.0,0,0,1,106607,-177577,11.9099998474
1587293422218597725,31531,1587293422215608966,,2,81.0,0.0,514.0,0,0,1,106649,-177537,11.9099998474
1587293422264613506,31532,1587293422249608966,,2,81.0,0.0,484.0,0,0,1,106683,-177504,11.9099998474
1587293422303746787,31533,1587293422282608966,,2,81.0,0.0,456.0,0,0,1,106717,-177470,11.9099998474
1587293422321366162,31534,1587293422317608966,,2,169.0,0.0,450.0,0,0,1,106754,-177433,11.9099998474
1587293422366257881,31535,1587293422351608966,,2,168.0,0.0,502.0,0,0,1,106786,-177401,11.9099998474
1587293422406693193,31536,1587293422384608966,,2,183.0,0.0,470.0,0,0,1,106820,-177368,11.9300003052
1587293422425237516,31537,1587293422419608966,,2,182.0,0.0,458.0,0,0,1,106855,-177332,11.9099998474
1587293422469655120,31538,1587293422453608966,,2,81.0,0.0,455.0,0,0,1,106888,-177298,11.9099998474
1587293422507782100,31539,1587293422486608966,,2,169.0,0.0,469.0,0,0,1,106920,-177266,11.9300003052
1587293422524746943,31540,1587293422521608966,,2,184.0,0.0,456.0,0,0,1,106954,-177231,11.9099998474
1587293422568575745,31541,1587293422555608966,,2,171.0,0.0,450.0,0,0,1,106989,-177194,11.9300003052
1587293422609194860,31542,1587293422588608966,,2,170.0,0.0,446.0,0,0,1,107023,-177160,11.9300003052
1587293422626405485,31543,1587293422624608966,,2,185.0,0.0,463.0,0,0,1,107057,-177125,11.9300003052
1587293422675897047,31544,1587293422658608966,,2,171.0,0.0,456.0,0,0,1,107088,-177092,11.9099998474
1587293422717222412,31545,1587293422691608966,,2,185.0,0.0,508.0,0,0,1,107123,-177059,11.9099998474
1587293422737238297,31546,1587293422729608966,,2,81.0,0.0,541.0,0,0,1,107161,-177020,11.9099998474
1587293422778013922,31547,1587293422763608966,,2,81.0,0.0,510.0,0,0,1,107194,-176987,11.9099998474
1587293422816877829,31548,1587293422811608966,,2,132.0,0.0,551.0,0,0,1,107240,-176938,11.9099998474
1587293422861445276,31549,1587293422845608966,,2,132.0,0.0,551.0,0,0,1,107274,-176903,11.9099998474
1587293422902755329,31550,1587293422878608966,,2,173.0,0.0,502.0,0,0,1,107308,-176869,11.9099998474
1587293422920403974,31551,1587293422915608966,,2,175.0,0.0,477.0,0,0,1,107345,-176832,11.9099998474
1587293422963929704,31552,1587293422949608966,,2,134.0,0.0,469.0,0,0,1,107374,-176799,11.9300003052
1587293423001744860,31553,1587293422982608966,,2,173.0,0.0,473.0,0,0,1,107408,-176764,11.9099998474
1587293423019915433,31554,1587293423017608966,,2,81.0,0.0,468.0,0,0,1,107445,-176729,11.9300003052
