%time,field.header.seq,field.header.stamp,field.header.frame_id,field.bumper,field.cliff,field.sonar,field.illumination,field.led,field.button,field.torque,field.left_encoder,field.right_encoder,field.battery
1587292660028576162,32448,1587292660014466085,,2,114.0,0.0,373.0,0,0,1,-1279,-5112,11.8900003433
1587292660070000850,32449,1587292660047466085,,2,132.0,0.0,395.0,0,0,1,-1279,-5112,11.8900003433
1587292660087451006,32450,1587292660082466085,,2,80.0,0.0,383.0,0,0,1,-1279,-5111,11.8699998856
1587292660127976422,32451,1587292660115466085,,2,126.0,0.0,394.0,0,0,1,-1279,-5111,11.8900003433
1587292660167718037,32452,1587292660148466085,,2,80.0,0.0,466.0,0,0,1,-1279,-5112,11.9099998474
1587292660189142412,32453,1587292660182466085,,2,114.0,0.0,437.0,0,0,1,-1279,-5111,11.8900003433
1587292660233287933,32454,1587292660215466085,,2,127.0,0.0,403.0,0,0,1,-1279,-5112,11.9099998474
1587292660255096266,32455,1587292660251466085,,2,81.0,0.0,381.0,0,0,1,-1279,-5111,11.8900003433
1587292660295316943,32456,1587292660284466085,,2,124.0,0.0,395.0,0,0,1,-1279,-5112,11.8900003433
1587292660336019756,32457,1587292660317466085,,2,126.0,0.0,369.0,0,0,1,-1279,-5112,11.8699998856
1587292660356685016,32458,1587292660354466085,,2,80.0,0.0,371.0,0,0,1,-1279,-5112,11.9099998474
1587292660399021787,32459,1587292660387466085,,2,81.0,0.0,360.0,0,0,1,-1279,-5112,11.9099998474
1587292660437791266,32460,1587292660420466085,,2,127.0,0.0,388.0,0,0,1,-1279,-5112,11.8900003433
1587292660458513610,32461,1587292660454466085,,2,115.0,0.0,465.0,0,0,1,-1279,-5111,11.8900003433
1587292660503155381,32462,1587292660487466085,,2,115.0,0.0,402.0,0,0,1,-1279,-5111,11.8900003433
1587292660542743506,32463,1587292660520466085,,2,114.0,0.0,381.0,0,0,1,-1279,-5111,11.8900003433
1587292660564417933,32464,1587292660553466085,,2,114.0,0.0,397.0,0,0,1,-1279,-5112,11.8900003433
1587292660599984964,32465,1587292660586466085,,2,127.0,0.0,407.0,0,0,1,-1279,-5112,11.8900003433
1587292660644714651,32466,1587292660619466085,,2,80.0,0.0,380.0,0,0,1,-1279,-5111,11.8900003433
1587292660663276943,32467,1587292660658466085,,2,114.0,0.0,406.0,0,0,1,-1279,-5112,11.8900003433
1587292660706078714,32468,1587292660691466085,,2,116.0,0.0,376.0,0,0,1,-1279,-5111,11.8900003433
1587292660744364912,32469,1587292660724466085,,2,128.0,0.0,462.0,0,0,1,-1279,-5112,11.8900003433
1587292660768694547,32470,1587292660759466085,,2,128.0,0.0,414.0,0,0,1,-1279,-5111,11.8900003433
1587292660809047985,32471,1587292660792466085,,2,126.0,0.0,473.0,0,0,1,-1279,-5112,11.8699998856
1587292660834603766,32472,1587292660827466085,,2,80.0,0.0,517.0,0,0,1,-1279,-5112,11.9099998474
1587292660872302568,32473,1587292660860466085,,2,127.0,0.0,463.0,0,0,1,-1279,-5112,11.8900003433
1587292660912299078,32474,1587292660903857103,,2,81.0,0.0,438.0,0,0,1,-1279,-5112,11.8900003433
1587292660935086162,32475,1587292660938857103,,2,115.0,0.0,395.0,0,0,1,-1279,-5112,11.9099998474
1587292660976528349,32476,1587292660971857103,,2,114.0,0.0,373.0,0,0,1,-1279,-5111,11.8699998856
1587292661003400485,32477,1587292661006857103,,2,114.0,0.0,462.0,0,0,1,-1279,-5112,11.8900003433
1587292661039263714,32478,1587292661039857103,,2,148.0,0.0,399.0,0,0,1,-1279,-5112,11.8900003433
1587292661077957568,32479,1587292661072857103,,2,82.0,0.0,412.0,0,0,1,-1279,-5112,11.8900003433
1587292661107504964,32480,1587292661107857103,,2,113.0,0.0,486.0,0,0,1,-1279,-5112,11.8900003433
1587292661141137672,32481,1587292661140857103,,2,114.0,0.0,423.0,0,0,1,-1279,-5112,11.8699998856
1587292661180784912,32482,1587292661173857103,,2,129.0,0.0,387.0,0,0,1,-1279,-5112,11.8900003433
1587292661205110849,32483,1587292661208857103,,2,120.0,0.0,369.0,0,0,1,-1279,-5112,11.8699998856
1587292661243520537,32484,1587292661241857103,,2,135.0,0.0,459.0,0,0,1,-1279,-5112,11.8900003433
1587292661283249443,32485,1587292661274857103,,2,114.0,0.0,440.0,0,0,1,-1279,-5112,11.8900003433
1587292661309414443,32486,1587292661309857103,,2,126.0,0.0,404.0,0,0,1,-1279,-5112,11.8900003433
1587292661346148193,32487,1587292661342857103,,2,144.0,0.0,381.0,0,0,1,-1279,-5112,11.8900003433
1587292661384658974,32488,1587292661375857103,,2,81.0,0.0,371.0,0,0,1,-1279,-5111,11.8699998856
1587292661408098870,32489,1587292661410857103,,2,114.0,0.0,462.0,0,0,1,-1279,-5112,11.8900003433
1587292661444366162,32490,1587292661444857103,,2,127.0,0.0,502.0,0,0,1,-1279,-5112,11.8900003433
1587292661484550276,32491,1587292661477857103,,2,114.0,0.0,451.0,0,0,1,-1279,-5111,11.8900003433
1587292661511253037,32492,1587292661511857103,,2,128.0,0.0,495.0,0,0,1,-1279,-5112,11.8900003433
1587292661551451630,32493,1587292661544857103,,2,128.0,0.0,421.0,0,0,1,-1279,-5112,11.8900003433
1587292661592536370,32494,1587292661577857103,,2,114.0,0.0,389.0,0,0,1,-1279,-5112,11.8900003433
1587292661609908505,32495,1587292661610857103,,2,159.0,0.0,372.0,0,0,1,-1279,-5112,11.8900003433
1587292661656135589,32496,1587292661643857103,,2,82.0,0.0,372.0,0,0,1,-1279,-5112,11.8900003433
1587292661679823036,32497,1587292661676857103,,2,114.0,0.0,367.0,0,0,1,-1279,-5111,11.8900003433
1587292661719214703,32498,1587292661709857103,,2,114.0,0.0,360.0,0,0,1,-1279,-5112,11.8900003433
1587292661744302984,32499,1587292661746857103,,2,114.0,0.0,454.0,0,0,1,-1279,-5112,11.8900003433
1587292661783900536,32500,1587292661779857103,,2,127.0,0.0,400.0,0,0,1,-1279,-5112,11.8900003433
1587292661825726370,32501,1587292661812857103,,2,128.0,0.0,376.0,0,0,1,-1279,-5112,11.8900003433
1587292661850856838,32502,1587292661847857103,,2,114.0,0.0,412.0,0,0,1,-1279,-5112,11.8900003433
1587292661895218609,32503,1587292661880857103,,2,114.0,0.0,387.0,0,0,1,-1279,-5112,11.8900003433
1587292661929300068,32504,1587292661924857103,,2,80.0,0.0,477.0,0,0,1,-1279,-5112,11.8900003433
1587292661974872932,32505,1587292661957857103,,2,126.0,0.0,412.0,0,0,1,-1279,-5112,11.8900003433
1587292661991010797,32506,1587292661993857103,,2,80.0,0.0,404.0,0,0,1,-1279,-5112,11.9099998474
1587292662028786838,32507,1587292662026857103,,2,126.0,0.0,399.0,0,0,1,-1279,-5112,11.8900003433
1587292662072037515,32508,1587292662059857103,,2,113.0,0.0,382.0,0,0,1,-1279,-5112,11.9099998474
1587292662093294911,32509,1587292662094857103,,2,114.0,0.0,378.0,0,0,1,-1279,-5112,11.8699998856
1587292662129537411,32510,1587292662127857103,,2,80.0,0.0,463.0,0,0,1,-1279,-5112,11.8900003433
1587292662174127672,32511,1587292662160857103,,2,114.0,0.0,406.0,0,0,1,-1279,-5112,11.8900003433
1587292662195037307,32512,1587292662199857103,,2,127.0,0.0,388.0,0,0,1,-1279,-5112,11.9099998474
1587292662237690276,32513,1587292662232857103,,2,116.0,0.0,463.0,0,0,1,-1279,-5112,11.8900003433
1587292662268048349,32514,1587292662268857103,,2,127.0,0.0,506.0,0,0,1,-1279,-5112,11.8900003433
1587292662303864338,32515,1587292662301857103,,2,127.0,0.0,428.0,0,0,1,-1279,-5112,11.8900003433
1587292662341618713,32516,1587292662334857103,,2,114.0,0.0,487.0,0,0,1,-1279,-5112,11.8699998856
1587292662364782203,32517,1587292662369857103,,2,127.0,0.0,523.0,0,0,1,-1279,-5112,11.8900003433
1587292662404438297,32518,1587292662402857103,,2,145.0,0.0,466.0,0,0,1,-1279,-5112,11.8900003433
1587292662443541057,32519,1587292662435857103,,2,126.0,0.0,407.0,0,0,1,-1279,-5112,11.8900003433
1587292662467945172,32520,1587292662469857103,,2,158.0,0.0,486.0,0,0,1,-1279,-5112,11.9099998474
1587292662509269026,32521,1587292662502857103,,2,129.0,0.0,413.0,0,0,1,-1279,-5112,11.8900003433
1587292662536595536,32522,1587292662537857103,,2,80.0,0.0,482.0,0,0,1,-1279,-5112,11.8900003433
1587292662577633661,32523,1587292662570857103,,2,126.0,0.0,410.0,0,0,1,-1279,-5112,11.8900003433
1587292662605659599,32524,1587292662604857103,,2,80.0,0.0,390.0,0,0,1,-1279,-5111,11.8900003433
1587292662644519859,32525,1587292662638857103,,2,114.0,0.0,396.0,0,0,1,-1279,-5112,11.8900003433
1587292662684703140,32526,1587292662671857103,,2,125.0,0.0,477.0,0,0,1,-1279,-5112,11.9099998474
1587292662703153036,32527,1587292662705857103,,2,80.0,0.0,413.0,0,0,1,-1279,-5112,11.8900003433
1587292662743315067,32528,1587292662738857103,,2,81.0,0.0,488.0,0,0,1,-1279,-5112,11.8900003433
1587292662782725640,32529,1587292662771857103,,2,127.0,0.0,446.0,0,0,1,-1279,-5112,11.8900003433
1587292662809155484,32530,1587292662806857103,,2,148.0,0.0,434.0,0,0,1,-1279,-5112,11.8900003433
1587292662847620484,32531,1587292662840857103,,2,125.0,0.0,490.0,0,0,1,-1279,-5112,11.8900003433
1587292662875410692,32532,1587292662875857103,,2,128.0,0.0,422.0,0,0,1,-1279,-5112,11.8699998856
1587292662913908817,32533,1587292662908857103,,2,127.0,0.0,414.0,0,0,1,-1279,-5112,11.8900003433
1587292662938642776,32534,1587292662943857103,,2,126.0,0.0,381.0,0,0,1,-1279,-5112,11.8900003433
1587292662977214703,32535,1587292662976857103,,2,127.0,0.0,372.0,0,0,1,-1279,-5112,11.8699998856
1587292663024460223,32536,1587292663009857103,,2,80.0,0.0,369.0,0,0,1,-1279,-5112,11.8900003433
1587292663045914546,32537,1587292663043857103,,2,128.0,0.0,387.0,0,0,1,-1279,-5112,11.8900003433
1587292663079650744,32538,1587292663077857103,,2,80.0,0.0,366.0,0,0,1,-1279,-5112,11.8900003433
1587292663128649442,32539,1587292663120857103,,2,128.0,0.0,372.0,0,0,1,-1279,-5111,11.8900003433
1587292663166835848,32540,1587292663153857103,,2,114.0,0.0,373.0,0,0,1,-1279,-5112,11.8900003433
1587292663197382098,32541,1587292663188857103,,2,127.0,0.0,368.0,0,0,1,-1279,-5112,11.8699998856
1587292663231434390,32542,1587292663222857103,,2,127.0,0.0,362.0,0,0,1,-1279,-5112,11.8900003433
1587292663274027203,32543,1587292663255857103,,2,114.0,0.0,355.0,0,0,1,-1279,-5112,11.9099998474
1587292663291193609,32544,1587292663287857103,,2,114.0,0.0,453.0,0,0,1,-1279,-5112,11.8900003433
1587292663333777515,32545,1587292663320857103,,2,114.0,0.0,429.0,0,0,1,-1279,-5111,11.9099998474
1587292663349344702,32546,1587292663354857103,,2,126.0,0.0,397.0,0,0,1,-1279,-5112,11.8900003433
1587292663389901109,32547,1587292663387857103,,2,80.0,0.0,389.0,0,0,1,-1279,-5112,11.8900003433
1587292663431670275,32548,1587292663423242979,,2,125.0,0.0,391.0,0,0,1,-1279,-5112,11.9099998474
1587292663448505692,32549,1587292663458242979,,2,127.0,0.0,377.0,0,0,1,-1279,-5111,11.8900003433
1587292663486922932,32550,1587292663491242979,,2,128.0,0.0,372.0,0,0,1,-1279,-5112,11.8699998856
1587292663528279807,32551,1587292663524242979,,2,114.0,0.0,389.0,0,0,1,-1279,-5112,11.8900003433
1587292663549013973,32552,1587292663559242979,,2,127.0,0.0,374.0,0,0,1,-1279,-5111,11.8900003433
1587292663589479025,32553,1587292663592242979,,2,80.0,0.0,392.0,0,0,1,-1279,-5112,11.8900003433
1587292663629956317,32554,1587292663625242979,,2,114.0,0.0,369.0,0,0,1,-1279,-5112,11.8699998856
1587292663655991109,32555,1587292663661242979,,2,127.0,0.0,412.0,0,0,1,-1279,-5112,11.8900003433
1587292663700893504,32556,1587292663697242979,,2,116.0,0.0,402.0,0,0,1,-1279,-5112,11.8900003433
1587292663733095588,32557,1587292663731242979,,2,114.0,0.0,382.0,0,0,1,-1279,-5112,11.8900003433
1587292663766671473,32558,1587292663764242979,,2,128.0,0.0,370.0,0,0,1,-1279,-5112,11.8900003433
1587292663805732671,32559,1587292663797242979,,2,126.0,0.0,362.0,0,0,1,-1279,-5112,11.8900003433
1587292663824595431,32560,1587292663831242979,,2,80.0,0.0,354.0,0,0,1,-1279,-5112,11.8900003433
1587292663871487098,32561,1587292663867242979,,2,128.0,0.0,382.0,0,0,1,-1279,-5112,11.8699998856
1587292663909890796,32562,1587292663900242979,,2,127.0,0.0,366.0,0,0,1,-1279,-5111,11.8900003433
1587292663928812931,32563,1587292663935242979,,2,127.0,0.0,368.0,0,0,1,-1279,-5111,11.8900003433
1587292663977714129,32564,1587292663971242979,,2,81.0,0.0,457.0,0,0,1,-1279,-5111,11.8900003433
1587292663999593296,32565,1587292664007242979,,2,128.0,0.0,406.0,0,0,1,-1279,-5112,11.8900003433
1587292664039648765,32566,1587292664040242979,,2,114.0,0.0,411.0,0,0,1,-1279,-5112,11.9099998474
1587292664081163973,32567,1587292664073242979,,2,80.0,0.0,387.0,0,0,1,-1279,-5112,11.9099998474
1587292664097564650,32568,1587292664107242979,,2,114.0,0.0,471.0,0,0,1,-1279,-5112,11.8900003433
1587292664138190119,32569,1587292664140242979,,2,128.0,0.0,518.0,0,0,1,-1279,-5112,11.9099998474
1587292664177333192,32570,1587292664173242979,,2,81.0,0.0,429.0,0,0,1,-1279,-5112,11.8900003433
1587292664201859025,32571,1587292664208242979,,2,163.0,0.0,394.0,0,0,1,-1279,-5111,11.8900003433
1587292664244243869,32572,1587292664241242979,,2,156.0,0.0,376.0,0,0,1,-1279,-5112,11.8900003433
1587292664268149285,32573,1587292664276242979,,2,80.0,0.0,470.0,0,0,1,-1279,-5112,11.8900003433
1587292664306799546,32574,1587292664309242979,,2,128.0,0.0,508.0,0,0,1,-1279,-5112,11.8900003433
1587292664348474233,32575,1587292664342242979,,2,115.0,0.0,434.0,0,0,1,-1279,-5112,11.8699998856
1587292664390570379,32576,1587292664375242979,,2,81.0,0.0,418.0,0,0,1,-1279,-5111,11.8900003433
1587292664407546942,32577,1587292664411242979,,2,128.0,0.0,483.0,0,0,1,-1279,-5112,11.8699998856
1587292664448009181,32578,1587292664444242979,,2,81.0,0.0,511.0,0,0,1,-1279,-5112,11.9099998474
1587292664475281369,32579,1587292664479242979,,2,125.0,0.0,537.0,0,0,1,-1279,-5111,11.8900003433
1587292664509290744,32580,1587292664512242979,,2,114.0,0.0,475.0,0,0,1,-1279,-5112,11.8900003433
1587292664552564285,32581,1587292664545242979,,2,114.0,0.0,419.0,0,0,1,-1279,-5112,11.9099998474
1587292664573836212,32582,1587292664580242979,,2,126.0,0.0,389.0,0,0,1,-1279,-5112,11.8699998856
1587292664607928244,32583,1587292664613242979,,2,114.0,0.0,370.0,0,0,1,-1279,-5111,11.9099998474
1587292664650345744,32584,1587292664646242979,,2,127.0,0.0,464.0,0,0,1,-1279,-5112,11.8900003433
1587292664688567358,32585,1587292664679242979,,2,113.0,0.0,417.0,0,0,1,-1279,-5112,11.8900003433
1587292664707915483,32586,1587292664712242979,,2,127.0,0.0,381.0,0,0,1,-1279,-5112,11.8900003433
1587292664746413452,32587,1587292664745242979,,2,126.0,0.0,481.0,0,0,1,-1279,-5112,11.9099998474
1587292664782577931,32588,1587292664788242979,,2,128.0,0.0,510.0,0,0,1,-1279,-5112,11.8900003433
1587292664822800952,32589,1587292664821242979,,2,138.0,0.0,529.0,0,0,1,-1279,-5112,11.8900003433
1587292664864625483,32590,1587292664854242979,,2,114.0,0.0,437.0,0,0,1,-1279,-5112,11.8900003433
1587292664886642983,32591,1587292664888242979,,2,127.0,0.0,434.0,0,0,1,-1279,-5112,11.8900003433
1587292664927151525,32592,1587292664921242979,,2,80.0,0.0,428.0,0,0,1,-1279,-5111,11.8900003433
1587292664949276004,32593,1587292664955242979,,2,128.0,0.0,486.0,0,0,1,-1279,-5112,11.8900003433
1587292664994148816,32594,1587292664988242979,,2,80.0,0.0,411.0,0,0,1,-1279,-5112,11.8699998856
1587292665016393973,32595,1587292665026242979,,2,81.0,0.0,421.0,0,0,1,-1279,-5111,11.9099998474
1587292665058811056,32596,1587292665059242979,,2,126.0,0.0,483.0,0,0,1,-1279,-5112,11.8900003433
1587292665099171525,32597,1587292665092242979,,2,126.0,0.0,416.0,0,0,1,-1279,-5112,11.8699998856
1587292665119415431,32598,1587292665125242979,,2,80.0,0.0,480.0,0,0,1,-1279,-5112,11.8900003433
1587292665158785483,32599,1587292665158242979,,2,127.0,0.0,410.0,0,0,1,-1279,-5112,11.8900003433
1587292665203725066,32600,1587292665191242979,,2,126.0,0.0,393.0,0,0,1,-1279,-5111,11.9099998474
1587292665223449181,32601,1587292665225242979,,2,127.0,0.0,469.0,0,0,1,-1279,-5112,11.8699998856
1587292665263048035,32602,1587292665258242979,,2,81.0,0.0,404.0,0,0,1,-1279,-5112,11.9099998474
1587292665296261421,32603,1587292665304242979,,2,80.0,0.0,411.0,0,0,1,-1279,-5112,11.8900003433
1587292665335932202,32604,1587292665337242979,,2,135.0,0.0,384.0,0,0,1,-1279,-5112,11.8900003433
1587292665379661681,32605,1587292665370242979,,2,81.0,0.0,370.0,0,0,1,-1279,-5112,11.8900003433
1587292665402004598,32606,1587292665407242979,,2,81.0,0.0,391.0,0,0,1,-1279,-5112,11.8900003433
1587292665444024598,32607,1587292665440242979,,2,126.0,0.0,414.0,0,0,1,-1279,-5112,11.8900003433
1587292665470372931,32608,1587292665476242979,,2,114.0,0.0,419.0,0,0,1,-1279,-5112,11.8900003433
1587292665512289754,32609,1587292665509242979,,2,128.0,0.0,382.0,0,0,1,-1279,-5112,11.8900003433
1587292665554671889,32610,1587292665542242979,,2,80.0,0.0,368.0,0,0,1,-1279,-5112,11.8900003433
1587292665572161212,32611,1587292665577242979,,2,114.0,0.0,462.0,0,0,1,-1279,-5112,11.8900003433
1587292665614733972,32612,1587292665610242979,,2,127.0,0.0,407.0,0,0,1,-1279,-5112,11.8900003433
1587292665644033139,32613,1587292665657242979,,2,129.0,0.0,427.0,0,0,1,-1279,-5112,11.8900003433
1587292665686738452,32614,1587292665690242979,,2,126.0,0.0,394.0,0,0,1,-1279,-5112,11.8900003433
1587292665726704806,32615,1587292665723242979,,2,154.0,0.0,467.0,0,0,1,-1279,-5111,11.8900003433
1587292665769111629,32616,1587292665756242979,,2,128.0,0.0,406.0,0,0,1,-1279,-5112,11.8900003433
1587292665786549806,32617,1587292665791242979,,2,125.0,0.0,401.0,0,0,1,-1279,-5112,11.8699998856
1587292665828933243,32618,1587292665824242979,,2,128.0,0.0,404.0,0,0,1,-1279,-5112,11.8900003433
1587292665866722306,32619,1587292665872242979,,2,114.0,0.0,493.0,0,0,1,-1279,-5112,11.8900003433
1587292665913705118,32620,1587292665895587928,,2,114.0,0.0,413.0,0,0,1,-1279,-5112,11.8900003433
1587292665953268399,32621,1587292665928587928,,2,114.0,0.0,415.0,0,0,1,-1279,-5111,11.8900003433
1587292665971935639,32622,1587292665967587928,,2,114.0,0.0,398.0,0,0,1,-1279,-5112,11.8900003433
1587292666015621889,32623,1587292666000587928,,2,114.0,0.0,374.0,0,0,1,-1279,-5112,11.8699998856
1587292666045181420,32624,1587292666040587928,,2,80.0,0.0,403.0,0,0,1,-1279,-5111,11.8900003433
1587292666086074389,32625,1587292666073587928,,2,114.0,0.0,477.0,0,0,1,-1279,-5112,11.8900003433
1587292666106864701,32626,1587292666107587928,,2,127.0,0.0,516.0,0,0,1,-1279,-5112,11.9099998474
1587292666148143764,32627,1587292666140587928,,2,127.0,0.0,431.0,0,0,1,-1279,-5112,11.9099998474
1587292666188251108,32628,1587292666173587928,,2,114.0,0.0,493.0,0,0,1,-1279,-5111,11.8699998856
1587292666210478712,32629,1587292666209587928,,2,80.0,0.0,418.0,0,0,1,-1279,-5112,11.8900003433
1587292666255864181,32630,1587292666242587928,,2,125.0,0.0,482.0,0,0,1,-1279,-5112,11.8900003433
1587292666297768451,32631,1587292666275587928,,2,80.0,0.0,418.0,0,0,1,-1279,-5112,11.9099998474
1587292666317427774,32632,1587292666310587928,,2,154.0,0.0,413.0,0,0,1,-1279,-5112,11.8900003433
1587292666354326264,32633,1587292666343587928,,2,115.0,0.0,413.0,0,0,1,-1279,-5111,11.8900003433
1587292666394384545,32634,1587292666376587928,,2,129.0,0.0,392.0,0,0,1,-1279,-5112,11.8900003433
1587292666411430743,32635,1587292666408587928,,2,114.0,0.0,378.0,0,0,1,-1279,-5112,11.8699998856
1587292666452818295,32636,1587292666441587928,,2,128.0,0.0,372.0,0,0,1,-1279,-5112,11.9099998474
1587292666493442462,32637,1587292666474587928,,2,81.0,0.0,357.0,0,0,1,-1279,-5111,11.8699998856
1587292666513962097,32638,1587292666510587928,,2,114.0,0.0,390.0,0,0,1,-1278,-5098,11.8699998856
1587292666556257097,32639,1587292666543587928,,2,126.0,0.0,363.0,0,0,1,-1266,-5078,11.8699998856
1587292666577795639,32640,1587292666577587928,,2,80.0,0.0,458.0,0,0,1,-1245,-5052,11.8699998856
1587292666616633399,32641,1587292666610587928,,2,138.0,0.0,493.0,0,0,1,-1221,-5021,11.8699998856
1587292666659435743,32642,1587292666643587928,,2,117.0,0.0,449.0,0,0,1,-1195,-4990,11.8699998856
1587292666681588347,32643,1587292666680587928,,2,129.0,0.0,407.0,0,0,1,-1159,-4955,11.8699998856
1587292666723126055,32644,1587292666713587928,,2,129.0,0.0,415.0,0,0,1,-1127,-4922,11.8699998856
1587292666764375378,32645,1587292666746587928,,2,115.0,0.0,414.0,0,0,1,-1095,-4888,11.8900003433
1587292666783190951,32646,1587292666781587928,,2,130.0,0.0,407.0,0,0,1,-1060,-4850,11.8699998856
1587292666823845951,32647,1587292666814587928,,2,129.0,0.0,475.0,0,0,1,-1027,-4816,11.8900003433
1587292666870349909,32648,1587292666847587928,,2,81.0,0.0,514.0,0,0,1,-994,-4783,11.8699998856
1587292666887852253,32649,1587292666884587928,,2,115.0,0.0,430.0,0,0,1,-957,-4745,11.8699998856
1587292666927197514,32650,1587292666917587928,,2,129.0,0.0,390.0,0,0,1,-926,-4711,11.8699998856
1587292666970840430,32651,1587292666950587928,,2,129.0,0.0,468.0,0,0,1,-893,-4679,11.8699998856
1587292666986470274,32652,1587292666984587928,,2,129.0,0.0,411.0,0,0,1,-861,-4645,11.8699998856
1587292667029863034,32653,1587292667017587928,,2,118.0,0.0,485.0,0,0,1,-828,-4610,11.8900003433
1587292667072108034,32654,1587292667063587928,,2,129.0,0.0,428.0,0,0,1,-781,-4564,11.8900003433
1587292667112687774,32655,1587292667096587928,,2,133.0,0.0,394.0,0,0,1,-748,-4532,11.8900003433
1587292667134447201,32656,1587292667129587928,,2,129.0,0.0,468.0,0,0,1,-716,-4499,11.8699998856
1587292667176128243,32657,1587292667162587928,,2,128.0,0.0,436.0,0,0,1,-684,-4468,11.8699998856
1587292667199476836,32658,1587292667197587928,,2,114.0,0.0,500.0,0,0,1,-649,-4432,11.8699998856
1587292667237318451,32659,1587292667230587928,,2,82.0,0.0,429.0,0,0,1,-616,-4398,11.8699998856
1587292667281311524,32660,1587292667263587928,,2,81.0,0.0,487.0,0,0,1,-583,-4366,11.8900003433
1587292667297939649,32661,1587292667297587928,,2,80.0,0.0,518.0,0,0,1,-550,-4332,11.8900003433
1587292667338523607,32662,1587292667330587928,,2,159.0,0.0,431.0,0,0,1,-518,-4300,11.8900003433
1587292667380178503,32663,1587292667363587928,,2,116.0,0.0,424.0,0,0,1,-484,-4267,11.8699998856
1587292667404172253,32664,1587292667399587928,,2,116.0,0.0,400.0,0,0,1,-449,-4231,11.8900003433
1587292667442548868,32665,1587292667432587928,,2,80.0,0.0,380.0,0,0,1,-417,-4198,11.8699998856
1587292667485111159,32666,1587292667465587928,,2,130.0,0.0,395.0,0,0,1,-387,-4167,11.8900003433
1587292667503815534,32667,1587292667501587928,,2,115.0,0.0,410.0,0,0,1,-351,-4130,11.8699998856
1587292667542234545,32668,1587292667534587928,,2,81.0,0.0,477.0,0,0,1,-315,-4097,11.8500003815
1587292667585315586,32669,1587292667567587928,,2,129.0,0.0,445.0,0,0,1,-283,-4064,11.8699998856
1587292667602658815,32670,1587292667600587928,,2,130.0,0.0,447.0,0,0,1,-251,-4031,11.8699998856
1587292667641985065,32671,1587292667633587928,,2,115.0,0.0,437.0,0,0,1,-217,-3998,11.8900003433
1587292667685131628,32672,1587292667666587928,,2,161.0,0.0,492.0,0,0,1,-184,-3966,11.8900003433
1587292667702376732,32673,1587292667699587928,,2,133.0,0.0,419.0,0,0,1,-151,-3933,11.8500003815
1587292667743758242,32674,1587292667732587928,,2,131.0,0.0,488.0,0,0,1,-119,-3900,11.8900003433
1587292667787145795,32675,1587292667765587928,,2,132.0,0.0,508.0,0,0,1,-88,-3866,11.8699998856
1587292667805039857,32676,1587292667802587928,,2,81.0,0.0,438.0,0,0,1,-51,-3830,11.8699998856
1587292667847269232,32677,1587292667835587928,,2,132.0,0.0,401.0,0,0,1,-16,-3798,11.8699998856
1587292667889580274,32678,1587292667868587928,,2,131.0,0.0,406.0,0,0,1,17,-3765,11.8699998856
1587292667909774128,32679,1587292667905587928,,2,131.0,0.0,413.0,0,0,1,54,-3728,11.8900003433
1587292667950202201,32680,1587292667938587928,,2,131.0,0.0,482.0,0,0,1,85,-3695,11.8500003815
1587292667994923555,32681,1587292667971587928,,2,130.0,0.0,420.0,0,0,1,117,-3664,11.8699998856
1587292668011734388,32682,1587292668004587928,,2,114.0,0.0,423.0,0,0,1,151,-3630,11.8500003815
1587292668054118867,32683,1587292668037587928,,2,131.0,0.0,389.0,0,0,1,185,-3597,11.8699998856
1587292668078046732,32684,1587292668073587928,,2,115.0,0.0,467.0,0,0,1,221,-3560,11.8699998856
1587292668116426315,32685,1587292668106587928,,2,80.0,0.0,427.0,0,0,1,257,-3529,11.8900003433
1587292668152018971,32686,1587292668140587928,,2,131.0,0.0,390.0,0,0,1,290,-3495,11.8699998856
1587292668187889649,32687,1587292668173587928,,2,132.0,0.0,465.0,0,0,1,322,-3463,11.8699998856
1587292668226818815,32688,1587292668206587928,,2,132.0,0.0,410.0,0,0,1,355,-3429,11.8699998856
1587292668248659596,32689,1587292668239587928,,2,116.0,0.0,387.0,0,0,1,388,-3396,11.8699998856
1587292668290654701,32690,1587292668272587928,,2,115.0,0.0,381.0,0,0,1,420,-3365,11.8699998856
1587292668314203763,32691,1587292668311587928,,2,132.0,0.0,414.0,0,0,1,458,-3325,11.8900003433
1587292668353470534,32692,1587292668344587928,,2,132.0,0.0,418.0,0,0,1,492,-3292,11.8699998856
1587292668395904909,32693,1587292668377587928,,2,80.0,0.0,410.0,0,0,1,525,-3260,11.8699998856
1587292668420854701,32694,1587292668430767915,,2,115.0,0.0,414.0,0,0,1,557,-3227,11.8699998856
1587292668460691367,32695,1587292668463767915,,2,131.0,0.0,413.0,0,0,1,589,-3196,11.8699998856
1587292668494324596,32696,1587292668501767915,,2,119.0,0.0,398.0,0,0,1,627,-3157,11.8900003433
1587292668532895378,32697,1587292668534767915,,2,81.0,0.0,472.0,0,0,1,659,-3123,11.8699998856
1587292668559687982,32698,1587292668573767915,,2,115.0,0.0,442.0,0,0,1,698,-3086,11.8699998856
1587292668599762253,32699,1587292668606767915,,2,115.0,0.0,415.0,0,0,1,731,-3054,11.8699998856
1587292668626259805,32700,1587292668641767915,,2,116.0,0.0,489.0,0,0,1,765,-3019,11.8900003433
1587292668667168242,32701,1587292668674767915,,2,129.0,0.0,417.0,0,0,1,799,-2988,11.8699998856
1587292668708075117,32702,1587292668707767915,,2,131.0,0.0,483.0,0,0,1,830,-2956,11.8900003433
1587292668726896680,32703,1587292668741767915,,2,116.0,0.0,432.0,0,0,1,862,-2923,11.8699998856
1587292668765638711,32704,1587292668774767915,,2,131.0,0.0,383.0,0,0,1,893,-2891,11.8699998856
1587292668808273815,32705,1587292668807767915,,2,115.0,0.0,375.0,0,0,1,926,-2857,11.8699998856
1587292668825928711,32706,1587292668840767915,,2,115.0,0.0,372.0,0,0,1,962,-2825,11.8699998856
1587292668868370273,32707,1587292668873767915,,2,131.0,0.0,459.0,0,0,1,994,-2792,11.8900003433
1587292668912081888,32708,1587292668921767915,,2,162.0,0.0,444.0,0,0,1,1040,-2745,11.8699998856
1587292668952871419,32709,1587292668954767915,,2,81.0,0.0,433.0,0,0,1,1073,-2712,11.8900003433
1587292668972229440,32710,1587292668987767915,,2,130.0,0.0,492.0,0,0,1,1107,-2680,11.8699998856
1587292669014053971,32711,1587292669020767915,,2,132.0,0.0,429.0,0,0,1,1138,-2648,11.8699998856
1587292669065462044,32712,1587292669053767915,,2,117.0,0.0,419.0,0,0,1,1170,-2615,11.8900003433
1587292669083443242,32713,1587292669095767915,,2,156.0,0.0,488.0,0,0,1,1214,-2573,11.8900003433
1587292669129086107,32714,1587292669128767915,,2,131.0,0.0,450.0,0,0,1,1249,-2541,11.8699998856
1587292669151624961,32715,1587292669168767915,,2,131.0,0.0,407.0,0,0,1,1289,-2503,11.8699998856
1587292669195697669,32716,1587292669201767915,,2,116.0,0.0,410.0,0,0,1,1322,-2471,11.8900003433
1587292669235717044,32717,1587292669234767915,,2,131.0,0.0,391.0,0,0,1,1353,-2440,11.8500003815
1587292669253405846,32718,1587292669271767915,,2,131.0,0.0,407.0,0,0,1,1392,-2404,11.8900003433
1587292669297641888,32719,1587292669304767915,,2,131.0,0.0,389.0,0,0,1,1425,-2372,11.8900003433
1587292669343271731,32720,1587292669337767915,,2,132.0,0.0,376.0,0,0,1,1456,-2339,11.8900003433
1587292669368080534,32721,1587292669373767915,,2,139.0,0.0,397.0,0,0,1,1494,-2303,11.8699998856
1587292669410949284,32722,1587292669406767915,,2,132.0,0.0,408.0,0,0,1,1527,-2270,11.8699998856
1587292669434393450,32723,1587292669449767915,,2,116.0,0.0,417.0,0,0,1,1568,-2228,11.8900003433
1587292669475568450,32724,1587292669482767915,,2,131.0,0.0,388.0,0,0,1,1601,-2196,11.8699998856
1587292669521645638,32725,1587292669515767915,,2,131.0,0.0,374.0,0,0,1,1634,-2163,11.8699998856
1587292669539331106,32726,1587292669552767915,,2,115.0,0.0,466.0,0,0,1,1669,-2128,11.8699998856
1587292669579741419,32727,1587292669585767915,,2,116.0,0.0,451.0,0,0,1,1701,-2096,11.8699998856
1587292669623660481,32728,1587292669630767915,,2,131.0,0.0,417.0,0,0,1,1748,-2051,11.8699998856
1587292669661722773,32729,1587292669663767915,,2,132.0,0.0,388.0,0,0,1,1780,-2017,11.8699998856
1587292669684508242,32730,1587292669697767915,,2,132.0,0.0,471.0,0,0,1,1814,-1985,11.8699998856
1587292669721379960,32731,1587292669730767915,,2,120.0,0.0,412.0,0,0,1,1847,-1953,11.8699998856
1587292669761707981,32732,1587292669763767915,,2,131.0,0.0,386.0,0,0,1,1879,-1921,11.8699998856
1587292669781739231,32733,1587292669796767915,,2,132.0,0.0,469.0,0,0,1,1911,-1887,11.8699998856
1587292669822033606,32734,1587292669829767915,,2,80.0,0.0,504.0,0,0,1,1944,-1855,11.8699998856
1587292669864296158,32735,1587292669874767915,,2,130.0,0.0,536.0,0,0,1,1987,-1810,11.8699998856
1587292669908274700,32736,1587292669907767915,,2,132.0,0.0,449.0,0,0,1,2021,-1779,11.8699998856
1587292669926931262,32737,1587292669940767915,,2,80.0,0.0,402.0,0,0,1,2054,-1744,11.8900003433
1587292669966424752,32738,1587292669973767915,,2,131.0,0.0,399.0,0,0,1,2087,-1713,11.8900003433
1587292670004097096,32739,1587292670018767915,,2,132.0,0.0,389.0,0,0,1,2130,-1669,11.8500003815
1587292670046541262,32740,1587292670051767915,,2,131.0,0.0,375.0,0,0,1,2163,-1637,11.8699998856
1587292670091130794,32741,1587292670084767915,,2,139.0,0.0,466.0,0,0,1,2195,-1603,11.8699998856
1587292670107692148,32742,1587292670123767915,,2,81.0,0.0,511.0,0,0,1,2236,-1564,11.8900003433
1587292670150251731,32743,1587292670156767915,,2,132.0,0.0,526.0,0,0,1,2269,-1531,11.8699998856
1587292670181875742,32744,1587292670201767915,,2,115.0,0.0,450.0,0,0,1,2314,-1486,11.8500003815
1587292670224242148,32745,1587292670234767915,,2,131.0,0.0,497.0,0,0,1,2347,-1453,11.8699998856
1587292670265046054,32746,1587292670267767915,,2,132.0,0.0,427.0,0,0,1,2381,-1421,11.8699998856
1587292670284350898,32747,1587292670305767915,,2,131.0,0.0,412.0,0,0,1,2416,-1382,11.8900003433
1587292670331466106,32748,1587292670338767915,,2,116.0,0.0,476.0,0,0,1,2448,-1350,11.8699998856
1587292670369560689,32749,1587292670371767915,,2,115.0,0.0,418.0,0,0,1,2480,-1316,11.8699998856
1587292670387888450,32750,1587292670406767915,,2,131.0,0.0,418.0,0,0,1,2517,-1281,11.8699998856
1587292670430951262,32751,1587292670439767915,,2,80.0,0.0,384.0,0,0,1,2549,-1248,11.8699998856
1587292670470111783,32752,1587292670472767915,,2,132.0,0.0,383.0,0,0,1,2581,-1215,11.8699998856
1587292670489132669,32753,1587292670505767915,,2,115.0,0.0,373.0,0,0,1,2612,-1182,11.8500003815
1587292670530004283,32754,1587292670538767915,,2,81.0,0.0,370.0,0,0,1,2646,-1150,11.8699998856
1587292670569002148,32755,1587292670571767915,,2,81.0,0.0,459.0,0,0,1,2677,-1117,11.8699998856
1587292670586227564,32756,1587292670605767915,,2,147.0,0.0,498.0,0,0,1,2711,-1083,11.8699998856
1587292670627403137,32757,1587292670638767915,,2,158.0,0.0,432.0,0,0,1,2743,-1048,11.8699998856
1587292670667846471,32758,1587292670671767915,,2,81.0,0.0,496.0,0,0,1,2778,-1014,11.8699998856
1587292670690507043,32759,1587292670708767915,,2,116.0,0.0,427.0,0,0,1,2816,-977,11.8699998856
1587292670733902460,32760,1587292670741767915,,2,80.0,0.0,491.0,0,0,1,2847,-945,11.8699998856
1587292670772769595,32761,1587292670774767915,,2,132.0,0.0,423.0,0,0,1,2879,-910,11.8900003433
1587292670795266523,32762,1587292670810767915,,2,81.0,0.0,419.0,0,0,1,2913,-874,11.8900003433
1587292670836955898,32763,1587292670843767915,,2,161.0,0.0,395.0,0,0,1,2945,-843,11.8699998856
1587292670860535429,32764,1587292670876767915,,2,132.0,0.0,377.0,0,0,1,2977,-810,11.8699998856
1587292670902931783,32765,1587292670909767915,,2,115.0,0.0,399.0,0,0,1,3010,-776,11.8699998856
1587292670947819908,32766,1587292670937757881,,2,115.0,0.0,406.0,0,0,1,3043,-742,11.8699998856
1587292670966499075,32767,1587292670973757881,,2,131.0,0.0,481.0,0,0,1,3080,-706,11.8699998856
1587292671003786627,32768,1587292671006757881,,2,117.0,0.0,441.0,0,0,1,3112,-674,11.8699998856
1587292671040688137,32769,1587292671048757881,,2,131.0,0.0,418.0,0,0,1,3152,-631,11.8699998856
1587292671080572095,32770,1587292671081757881,,2,133.0,0.0,475.0,0,0,1,3186,-597,11.8699998856
1587292671123587200,32771,1587292671114757881,,2,133.0,0.0,450.0,0,0,1,3219,-565,11.8900003433
1587292671140924804,32772,1587292671149757881,,2,131.0,0.0,496.0,0,0,1,3254,-528,11.8699998856
1587292671183033345,32773,1587292671182757881,,2,116.0,0.0,449.0,0,0,1,3286,-495,11.8699998856
1587292671219500272,32774,1587292671226757881,,2,115.0,0.0,525.0,0,0,1,3331,-450,11.8500003815
1587292671261392981,32775,1587292671259757881,,2,115.0,0.0,431.0,0,0,1,3365,-418,11.8900003433
1587292671283169283,32776,1587292671295757881,,2,132.0,0.0,498.0,0,0,1,3399,-381,11.8699998856
1587292671321247408,32777,1587292671328757881,,2,80.0,0.0,430.0,0,0,1,3433,-349,11.8900003433
1587292671367345533,32778,1587292671361757881,,2,80.0,0.0,394.0,0,0,1,3465,-315,11.8699998856
1587292671385745949,32779,1587292671395757881,,2,81.0,0.0,405.0,0,0,1,3501,-283,11.8500003815
1587292671421085533,32780,1587292671428757881,,2,132.0,0.0,390.0,0,0,1,3533,-249,11.8699998856
1587292671462964751,32781,1587292671461757881,,2,132.0,0.0,372.0,0,0,1,3567,-217,11.8699998856
1587292671483999595,32782,1587292671496757881,,2,131.0,0.0,379.0,0,0,1,3603,-182,11.8900003433
1587292671527526262,32783,1587292671529757881,,2,80.0,0.0,392.0,0,0,1,3636,-149,11.8699998856
1587292671567125272,32784,1587292671562757881,,2,131.0,0.0,397.0,0,0,1,3669,-116,11.8900003433
1587292671591992720,32785,1587292671599757881,,2,115.0,0.0,472.0,0,0,1,3705,-80,11.8699998856
1587292671630735324,32786,1587292671632757881,,2,115.0,0.0,416.0,0,0,1,3737,-46,11.8699998856
1587292671660634543,32787,1587292671666757881,,2,115.0,0.0,386.0,0,0,1,3771,-12,11.8699998856
1587292671697473553,32788,1587292671699757881,,2,131.0,0.0,463.0,0,0,1,3805,20,11.8699998856
1587292671737962876,32789,1587292671732757881,,2,115.0,0.0,443.0,0,0,1,3837,53,11.8699998856
1587292671767341053,32790,1587292671772757881,,2,131.0,0.0,405.0,0,0,1,3875,93,11.8699998856
1587292671809506418,32791,1587292671805757881,,2,81.0,0.0,383.0,0,0,1,3908,126,11.8699998856
1587292671827656731,32792,1587292671840757881,,2,115.0,0.0,471.0,0,0,1,3942,160,11.8699998856
1587292671868053397,32793,1587292671873757881,,2,132.0,0.0,441.0,0,0,1,3975,193,11.8699998856
1587292671908841991,32794,1587292671906757881,,2,131.0,0.0,406.0,0,0,1,4007,227,11.8699998856
1587292671929884126,32795,1587292671939757881,,2,80.0,0.0,386.0,0,0,1,4040,260,11.8699998856
1587292671967162408,32796,1587292671972757881,,2,132.0,0.0,373.0,0,0,1,4075,292,11.8699998856
1587292672010753866,32797,1587292672005757881,,2,80.0,0.0,463.0,0,0,1,4107,324,11.8699998856
1587292672028080949,32798,1587292672041757881,,2,81.0,0.0,407.0,0,0,1,4143,362,11.8699998856
1587292672069468033,32799,1587292672074757881,,2,131.0,0.0,481.0,0,0,1,4175,395,11.8699998856
1587292672110071053,32800,1587292672107757881,,2,131.0,0.0,432.0,0,0,1,4206,427,11.8699998856
1587292672131619126,32801,1587292672141757881,,2,131.0,0.0,484.0,0,0,1,4239,461,11.8699998856
1587292672171128085,32802,1587292672174757881,,2,115.0,0.0,413.0,0,0,1,4274,495,11.8699998856
1587292672198220689,32803,1587292672209757881,,2,130.0,0.0,420.0,0,0,1,4309,530,11.8699998856
1587292672233906678,32804,1587292672242757881,,2,129.0,0.0,412.0,0,0,1,4344,562,11.8699998856
1587292672274939855,32805,1587292672275757881,,2,144.0,0.0,388.0,0,0,1,4377,595,11.8500003815
1587292672314414491,32806,1587292672321757881,,2,130.0,0.0,389.0,0,0,1,4421,641,11.8900003433
1587292672353060272,32807,1587292672354757881,,2,81.0,0.0,372.0,0,0,1,4456,673,11.8500003815
1587292672395277668,32808,1587292672387757881,,2,81.0,0.0,378.0,0,0,1,4488,705,11.8699998856
1587292672418358605,32809,1587292672421757881,,2,131.0,0.0,363.0,0,0,1,4520,739,11.8699998856
1587292672452710584,32810,1587292672454757881,,2,132.0,0.0,366.0,0,0,1,4553,772,11.8900003433
1587292672485547043,32811,1587292672492757881,,2,115.0,0.0,368.0,0,0,1,4591,809,11.8900003433
1587292672525824907,32812,1587292672525757881,,2,115.0,0.0,390.0,0,0,1,4625,842,11.8699998856
1587292672566601053,32813,1587292672558757881,,2,116.0,0.0,372.0,0,0,1,4657,873,11.8900003433
1587292672583702043,32814,1587292672592757881,,2,130.0,0.0,376.0,0,0,1,4688,906,11.8500003815
1587292672625550636,32815,1587292672625757881,,2,131.0,0.0,464.0,0,0,1,4722,940,11.8699998856
1587292672660800376,32816,1587292672671757881,,2,131.0,0.0,442.0,0,0,1,4769,985,11.8699998856
1587292672701839439,32817,1587292672704757881,,2,81.0,0.0,405.0,0,0,1,4801,1017,11.8699998856
1587292672743557251,32818,1587292672737757881,,2,81.0,0.0,483.0,0,0,1,4832,1051,11.8900003433
1587292672761092563,32819,1587292672774757881,,2,115.0,0.0,421.0,0,0,1,4870,1086,11.8699998856
1587292672804291782,32820,1587292672807757881,,2,81.0,0.0,479.0,0,0,1,4902,1118,11.8900003433
1587292672841280845,32821,1587292672840757881,,2,131.0,0.0,424.0,0,0,1,4935,1149,11.8900003433
1587292672868544438,32822,1587292672877757881,,2,115.0,0.0,489.0,0,0,1,4969,1186,11.8699998856
1587292672911420741,32823,1587292672910757881,,2,116.0,0.0,431.0,0,0,1,5001,1220,11.8699998856
1587292672950544230,32824,1587292672943757881,,2,132.0,0.0,394.0,0,0,1,5035,1252,11.8699998856
1587292672969460168,32825,1587292672976757881,,2,80.0,0.0,376.0,0,0,1,5068,1285,11.8699998856
1587292673009861418,32826,1587292673009757881,,2,149.0,0.0,460.0,0,0,1,5102,1317,11.8699998856
1587292673052680740,32827,1587292673050757881,,2,132.0,0.0,415.0,0,0,1,5142,1356,11.8699998856
1587292673093052824,32828,1587292673083757881,,2,132.0,0.0,392.0,0,0,1,5175,1387,11.8699998856
1587292673111685115,32829,1587292673120757881,,2,133.0,0.0,409.0,0,0,1,5212,1424,11.8699998856
1587292673153693918,32830,1587292673153757881,,2,133.0,0.0,475.0,0,0,1,5244,1456,11.8699998856
1587292673185965063,32831,1587292673199757881,,2,132.0,0.0,527.0,0,0,1,5290,1503,11.8900003433
1587292673227183188,32832,1587292673232757881,,2,141.0,0.0,439.0,0,0,1,5323,1536,11.8500003815
1587292673268188188,32833,1587292673265757881,,2,132.0,0.0,436.0,0,0,1,5358,1568,11.8900003433
1587292673293095167,32834,1587292673301757881,,2,115.0,0.0,400.0,0,0,1,5393,1603,11.8900003433
1587292673336839907,32835,1587292673334757881,,2,132.0,0.0,391.0,0,0,1,5425,1635,11.8699998856
1587292673366999230,32836,1587292673370757881,,2,131.0,0.0,418.0,0,0,1,5462,1669,11.8699998856
1587292673406887199,32837,1587292673403757881,,2,133.0,0.0,381.0,0,0,1,5494,1701,11.8500003815
1587292673429628761,32838,1587292673443457038,,2,132.0,0.0,470.0,0,0,1,5529,1737,11.8699998856
1587292673471324074,32839,1587292673476457038,,2,132.0,0.0,504.0,0,0,1,5563,1769,11.8500003815
1587292673492078761,32840,1587292673510457038,,2,133.0,0.0,469.0,0,0,1,5599,1803,11.8699998856
1587292673533881886,32841,1587292673543457038,,2,134.0,0.0,510.0,0,0,1,5632,1834,11.8699998856
1587292673574593605,32842,1587292673576457038,,2,116.0,0.0,437.0,0,0,1,5664,1866,11.8699998856
1587292673597569074,32843,1587292673609457038,,2,133.0,0.0,426.0,0,0,1,5696,1899,11.8699998856
1587292673635856574,32844,1587292673642457038,,2,81.0,0.0,397.0,0,0,1,5728,1932,11.8699998856
1587292673659665636,32845,1587292673675457038,,2,80.0,0.0,408.0,0,0,1,5761,1963,11.8699998856
1587292673700348709,32846,1587292673708457038,,2,132.0,0.0,402.0,0,0,1,5793,1997,11.8699998856
1587292673739459959,32847,1587292673741457038,,2,133.0,0.0,403.0,0,0,1,5826,2030,11.8699998856
1587292673764201469,32848,1587292673776457038,,2,133.0,0.0,411.0,0,0,1,5861,2066,11.8699998856
1587292673798342719,32849,1587292673809457038,,2,134.0,0.0,386.0,0,0,1,5894,2098,11.8699998856
1587292673838866990,32850,1587292673842457038,,2,133.0,0.0,464.0,0,0,1,5928,2129,11.8900003433
1587292673863806521,32851,1587292673876457038,,2,132.0,0.0,437.0,0,0,1,5959,2161,11.8699998856
1587292673897802719,32852,1587292673909457038,,2,131.0,0.0,406.0,0,0,1,5991,2194,11.8900003433
1587292673938673240,32853,1587292673942457038,,2,119.0,0.0,390.0,0,0,1,6024,2227,11.8699998856
1587292673961073188,32854,1587292673976457038,,2,80.0,0.0,414.0,0,0,1,6058,2261,11.8699998856
1587292673998999751,32855,1587292674009457038,,2,81.0,0.0,487.0,0,0,1,6090,2292,11.8900003433
1587292674038435428,32856,1587292674042457038,,2,134.0,0.0,425.0,0,0,1,6124,2325,11.8699998856
1587292674064537407,32857,1587292674078457038,,2,116.0,0.0,410.0,0,0,1,6160,2362,11.8699998856
1587292674111177355,32858,1587292674111457038,,2,133.0,0.0,385.0,0,0,1,6193,2394,11.8699998856
1587292674127685219,32859,1587292674145457038,,2,133.0,0.0,399.0,0,0,1,6225,2428,11.8699998856
1587292674175862094,32860,1587292674178457038,,2,135.0,0.0,475.0,0,0,1,6258,2460,11.8699998856
1587292674217684178,32861,1587292674211457038,,2,81.0,0.0,443.0,0,0,1,6290,2494,11.8699998856
1587292674233362250,32862,1587292674245457038,,2,81.0,0.0,436.0,0,0,1,6325,2528,11.8699998856
1587292674272671782,32863,1587292674278457038,,2,133.0,0.0,407.0,0,0,1,6358,2560,11.8699998856
1587292674310283032,32864,1587292674323457038,,2,116.0,0.0,425.0,0,0,1,6403,2605,11.8900003433
1587292674351805323,32865,1587292674356457038,,2,80.0,0.0,481.0,0,0,1,6435,2637,11.8500003815
1587292674394122146,32866,1587292674389457038,,2,142.0,0.0,421.0,0,0,1,6470,2669,11.8699998856
1587292674417153344,32867,1587292674423457038,,2,134.0,0.0,422.0,0,0,1,6502,2702,11.8699998856
1587292674458724594,32868,1587292674456457038,,2,132.0,0.0,411.0,0,0,1,6534,2734,11.8900003433
1587292674497687615,32869,1587292674509457038,,2,116.0,0.0,435.0,0,0,1,6587,2790,11.8699998856
1587292674539211000,32870,1587292674542457038,,2,81.0,0.0,398.0,0,0,1,6621,2822,11.8900003433
1587292674582007927,32871,1587292674596457038,,2,81.0,0.0,402.0,0,0,1,6673,2878,11.8699998856
1587292674621769073,32872,1587292674629457038,,2,131.0,0.0,383.0,0,0,1,6703,2911,11.8500003815
1587292674661742250,32873,1587292674662457038,,2,116.0,0.0,401.0,0,0,1,6737,2944,11.8699998856
1587292674678665948,32874,1587292674697457038,,2,133.0,0.0,397.0,0,0,1,6768,2975,11.8900003433
1587292674724003344,32875,1587292674730457038,,2,137.0,0.0,401.0,0,0,1,6791,2997,11.8900003433
1587292674762885323,32876,1587292674763457038,,2,134.0,0.0,393.0,0,0,1,6809,3010,11.8699998856
1587292674785712927,32877,1587292674802457038,,2,136.0,0.0,378.0,0,0,1,6825,3014,11.8900003433
1587292674828329906,32878,1587292674835457038,,2,116.0,0.0,475.0,0,0,1,6834,3014,11.8699998856
1587292674871057406,32879,1587292674868457038,,2,116.0,0.0,407.0,0,0,1,6840,3014,11.8699998856
1587292674888145219,32880,1587292674902457038,,2,133.0,0.0,400.0,0,0,1,6847,3015,11.8900003433
1587292674932037927,32881,1587292674935457038,,2,133.0,0.0,401.0,0,0,1,6852,3014,11.8900003433
1587292674981853292,32882,1587292674983457038,,2,133.0,0.0,408.0,0,0,1,6858,3015,11.8900003433
1587292675027275323,32883,1587292675016457038,,2,124.0,0.0,390.0,0,0,1,6862,3014,11.8699998856
1587292675046317406,32884,1587292675053457038,,2,81.0,0.0,377.0,0,0,1,6867,3014,11.8699998856
1587292675086420896,32885,1587292675086457038,,2,117.0,0.0,379.0,0,0,1,6873,3012,11.8699998856
1587292675109892146,32886,1587292675122457038,,2,80.0,0.0,374.0,0,0,1,6879,3007,11.8900003433
1587292675151828604,32887,1587292675155457038,,2,134.0,0.0,371.0,0,0,1,6885,3002,11.8500003815
1587292675173250688,32888,1587292675190457038,,2,135.0,0.0,396.0,0,0,1,6891,2997,11.8699998856
1587292675217040844,32889,1587292675223457038,,2,134.0,0.0,473.0,0,0,1,6897,2994,11.8699998856
1587292675257266729,32890,1587292675256457038,,2,135.0,0.0,505.0,0,0,1,6903,2989,11.8699998856
1587292675272277042,32891,1587292675289457038,,2,134.0,0.0,466.0,0,0,1,6909,2985,11.8900003433
1587292675311713969,32892,1587292675322457038,,2,81.0,0.0,431.0,0,0,1,6914,2981,11.8500003815
1587292675356086781,32893,1587292675355457038,,2,81.0,0.0,394.0,0,0,1,6918,2977,11.8699998856
1587292675378916000,32894,1587292675390457038,,2,80.0,0.0,476.0,0,0,1,6924,2971,11.8500003815
1587292675417647719,32895,1587292675423457038,,2,81.0,0.0,422.0,0,0,1,6928,2966,11.8900003433
1587292675447748083,32896,1587292675458457038,,2,154.0,0.0,393.0,0,0,1,6934,2960,11.8699998856
1587292675481356625,32897,1587292675491457038,,2,135.0,0.0,480.0,0,0,1,6940,2953,11.8699998856
1587292675525064073,32898,1587292675524457038,,2,135.0,0.0,413.0,0,0,1,6945,2947,11.8699998856
1587292675542233917,32899,1587292675558457038,,2,136.0,0.0,487.0,0,0,1,6951,2941,11.8699998856
1587292675584061729,32900,1587292675591457038,,2,134.0,0.0,509.0,0,0,1,6957,2935,11.8699998856
1587292675624525896,32901,1587292675624457038,,2,81.0,0.0,531.0,0,0,1,6963,2930,11.8699998856
1587292675645902510,32902,1587292675659457038,,2,133.0,0.0,545.0,0,0,1,6969,2924,11.8900003433
1587292675689119073,32903,1587292675692457038,,2,116.0,0.0,542.0,0,0,1,6973,2919,11.8699998856
1587292675711588292,32904,1587292675728457038,,2,133.0,0.0,487.0,0,0,1,6979,2913,11.8500003815
1587292675750333239,32905,1587292675761457038,,2,116.0,0.0,424.0,0,0,1,6983,2907,11.8900003433
1587292675792377458,32906,1587292675794457038,,2,134.0,0.0,424.0,0,0,1,6989,2901,11.8500003815
1587292675813410583,32907,1587292675828457038,,2,120.0,0.0,411.0,0,0,1,6993,2895,11.8699998856
1587292675856002146,32908,1587292675861457038,,2,116.0,0.0,388.0,0,0,1,6999,2888,11.8699998856
1587292675884104437,32909,1587292675894457038,,2,134.0,0.0,394.0,0,0,1,7006,2882,11.8699998856
1587292675928596833,32910,1587292675912946947,,2,133.0,0.0,368.0,0,0,1,7011,2876,11.8900003433
1587292675945113031,32911,1587292675946946947,,2,133.0,0.0,366.0,0,0,1,7017,2870,11.8699998856
1587292675985724802,32912,1587292675979946947,,2,135.0,0.0,470.0,0,0,1,7021,2865,11.8699998856
1587292676027838812,32913,1587292676012946947,,2,116.0,0.0,414.0,0,0,1,7026,2859,11.8699998856
1587292676043474125,32914,1587292676047946947,,2,80.0,0.0,393.0,0,0,1,7032,2853,11.8699998856
1587292676089676364,32915,1587292676080946947,,2,80.0,0.0,378.0,0,0,1,7036,2848,11.8900003433
1587292676129285218,32916,1587292676113946947,,2,136.0,0.0,405.0,0,0,1,7041,2842,11.8699998856
1587292676151620271,32917,1587292676149946947,,2,136.0,0.0,431.0,0,0,1,7047,2836,11.8699998856
1587292676194812979,32918,1587292676182946947,,2,135.0,0.0,390.0,0,0,1,7052,2830,11.8699998856
1587292676216507614,32919,1587292676219946947,,2,135.0,0.0,378.0,0,0,1,7059,2824,11.8900003433
1587292676259998031,32920,1587292676252946947,,2,136.0,0.0,398.0,0,0,1,7066,2820,11.8699998856
1587292676298543552,32921,1587292676285946947,,2,117.0,0.0,469.0,0,0,1,7072,2816,11.8900003433
1587292676322940114,32922,1587292676320946947,,2,141.0,0.0,428.0,0,0,1,7078,2813,11.8699998856
1587292676362337823,32923,1587292676353946947,,2,80.0,0.0,491.0,0,0,1,7084,2809,11.8699998856
1587292676389310739,32924,1587292676388946947,,2,139.0,0.0,430.0,0,0,1,7090,2804,11.8900003433
1587292676423882979,32925,1587292676421946947,,2,137.0,0.0,403.0,0,0,1,7096,2799,11.8500003815
1587292676469057875,32926,1587292676454946947,,2,138.0,0.0,474.0,0,0,1,7101,2793,11.8900003433
1587292676493447562,32927,1587292676489946947,,2,81.0,0.0,426.0,0,0,1,7107,2786,11.8699998856
1587292676534519802,32928,1587292676522946947,,2,142.0,0.0,405.0,0,0,1,7114,2779,11.8699998856
1587292676577306729,32929,1587292676555946947,,2,119.0,0.0,418.0,0,0,1,7120,2773,11.8699998856
1587292676595236052,32930,1587292676593946947,,2,156.0,0.0,423.0,0,0,1,7127,2767,11.8699998856
1587292676639701677,32931,1587292676626946947,,2,120.0,0.0,423.0,0,0,1,7133,2761,11.8699998856
1587292676672473187,32932,1587292676674946947,,2,147.0,0.0,501.0,0,0,1,7141,2754,11.8500003815
1587292676713587354,32933,1587292676707946947,,2,81.0,0.0,525.0,0,0,1,7146,2749,11.8699998856
1587292676754043135,32934,1587292676740946947,,2,119.0,0.0,452.0,0,0,1,7151,2743,11.8699998856
1587292676775320947,32935,1587292676774946947,,2,158.0,0.0,438.0,0,0,1,7156,2737,11.8699998856
1587292676820043291,32936,1587292676807946947,,2,146.0,0.0,495.0,0,0,1,7161,2730,11.8900003433
1587292676839773031,32937,1587292676843946947,,2,142.0,0.0,519.0,0,0,1,7167,2724,11.8699998856
1587292676881766416,32938,1587292676876946947,,2,120.0,0.0,536.0,0,0,1,7172,2719,11.8699998856
1587292676926097770,32939,1587292676909946947,,2,170.0,0.0,467.0,0,0,1,7177,2712,11.8500003815
1587292676948311989,32940,1587292676950946947,,2,150.0,0.0,442.0,0,0,1,7183,2706,11.8699998856
1587292676993252614,32941,1587292676983946947,,2,165.0,0.0,498.0,0,0,1,7187,2701,11.8699998856
1587292677032130635,32942,1587292677016946947,,2,149.0,0.0,435.0,0,0,1,7193,2695,11.8500003815
1587292677050799906,32943,1587292677049946947,,2,145.0,0.0,414.0,0,0,1,7196,2690,11.8699998856
1587292677092937874,32944,1587292677082946947,,2,120.0,0.0,424.0,0,0,1,7202,2684,11.8699998856
1587292677134131103,32945,1587292677115946947,,2,157.0,0.0,483.0,0,0,1,7207,2679,11.8900003433
1587292677154063031,32946,1587292677148946947,,2,121.0,0.0,439.0,0,0,1,7211,2673,11.8699998856
1587292677194564958,32947,1587292677181946947,,2,150.0,0.0,413.0,0,0,1,7217,2667,11.8699998856
1587292677225238291,32948,1587292677223946947,,2,81.0,0.0,430.0,0,0,1,7224,2659,11.8699998856
1587292677268688291,32949,1587292677256946947,,2,120.0,0.0,415.0,0,0,1,7230,2654,11.8699998856
1587292677310722978,32950,1587292677289946947,,2,80.0,0.0,486.0,0,0,1,7236,2649,11.8500003815
1587292677328703760,32951,1587292677323946947,,2,145.0,0.0,429.0,0,0,1,7242,2644,11.8699998856
1587292677371130895,32952,1587292677356946947,,2,81.0,0.0,486.0,0,0,1,7247,2639,11.8500003815
1587292677391784228,32953,1587292677394946947,,2,81.0,0.0,462.0,0,0,1,7254,2633,11.8500003815
1587292677434854124,32954,1587292677427946947,,2,143.0,0.0,442.0,0,0,1,7259,2628,11.8699998856
1587292677474814437,32955,1587292677460946947,,2,120.0,0.0,495.0,0,0,1,7266,2622,11.8699998856
1587292677497025426,32956,1587292677495946947,,2,125.0,0.0,524.0,0,0,1,7273,2615,11.8699998856
1587292677545398864,32957,1587292677528946947,,2,148.0,0.0,531.0,0,0,1,7279,2609,11.8699998856
1587292677566929385,32958,1587292677570946947,,2,119.0,0.0,461.0,0,0,1,7286,2602,11.8699998856
1587292677612037457,32959,1587292677603946947,,2,166.0,0.0,510.0,0,0,1,7292,2596,11.8699998856
1587292677650220010,32960,1587292677636946947,,2,140.0,0.0,463.0,0,0,1,7298,2591,11.8500003815
1587292677680213239,32961,1587292677670946947,,2,138.0,0.0,418.0,0,0,1,7304,2586,11.8699998856
1587292677724020062,32962,1587292677703946947,,2,138.0,0.0,416.0,0,0,1,7309,2580,11.8500003815
1587292677748899385,32963,1587292677745946947,,2,122.0,0.0,417.0,0,0,1,7315,2575,11.8500003815
1587292677786534645,32964,1587292677778946947,,2,118.0,0.0,392.0,0,0,1,7320,2569,11.8500003815
1587292677812219489,32965,1587292677812946947,,2,82.0,0.0,411.0,0,0,1,7325,2564,11.8699998856
1587292677858021624,32966,1587292677845946947,,2,81.0,0.0,392.0,0,0,1,7332,2558,11.8699998856
1587292677895978864,32967,1587292677878946947,,2,81.0,0.0,390.0,0,0,1,7337,2553,11.8699998856
1587292677914615322,32968,1587292677916946947,,2,118.0,0.0,475.0,0,0,1,7344,2547,11.8699998856
1587292677955663551,32969,1587292677949946947,,2,138.0,0.0,523.0,0,0,1,7349,2542,11.8500003815
1587292677995844072,32970,1587292677982946947,,2,118.0,0.0,527.0,0,0,1,7355,2537,11.8699998856
1587292678018023239,32971,1587292678017946947,,2,138.0,0.0,547.0,0,0,1,7360,2532,11.8699998856
1587292678053709332,32972,1587292678050946947,,2,118.0,0.0,547.0,0,0,1,7366,2527,11.8699998856
1587292678099502197,32973,1587292678083946947,,2,138.0,0.0,453.0,0,0,1,7371,2522,11.8699998856
1587292678121423864,32974,1587292678121946947,,2,118.0,0.0,504.0,0,0,1,7377,2516,11.8699998856
1587292678163522041,32975,1587292678154946947,,2,125.0,0.0,527.0,0,0,1,7382,2510,11.8699998856
1587292678189761884,32976,1587292678189946947,,2,140.0,0.0,454.0,0,0,1,7389,2504,11.8500003815
1587292678228830374,32977,1587292678222946947,,2,139.0,0.0,409.0,0,0,1,7394,2499,11.8699998856
1587292678270797770,32978,1587292678255946947,,2,118.0,0.0,483.0,0,0,1,7401,2493,11.8500003815
1587292678292941051,32979,1587292678289946947,,2,140.0,0.0,439.0,0,0,1,7407,2488,11.8699998856
1587292678334515530,32980,1587292678322946947,,2,142.0,0.0,440.0,0,0,1,7412,2482,11.8699998856
1587292678358813343,32981,1587292678357946947,,2,118.0,0.0,405.0,0,0,1,7417,2477,11.8699998856
1587292678402834176,32982,1587292678390946947,,2,118.0,0.0,483.0,0,0,1,7423,2471,11.8699998856
1587292678441810947,32983,1587292678423946947,,2,140.0,0.0,420.0,0,0,1,7428,2467,11.8500003815
1587292678461800113,32984,1587292678473980026,,2,141.0,0.0,492.0,0,0,1,7434,2460,11.8699998856
1587292678503524020,32985,1587292678506980026,,2,118.0,0.0,426.0,0,0,1,7438,2454,11.8699998856
1587292678545956468,32986,1587292678539980026,,2,81.0,0.0,403.0,0,0,1,7444,2449,11.8900003433
1587292678569969436,32987,1587292678574980026,,2,140.0,0.0,394.0,0,0,1,7449,2442,11.8699998856
1587292678605972145,32988,1587292678607980026,,2,140.0,0.0,473.0,0,0,1,7454,2437,11.8699998856
1587292678643027874,32989,1587292678652980026,,2,140.0,0.0,452.0,0,0,1,7462,2429,11.8699998856
1587292678683989332,32990,1587292678685980026,,2,139.0,0.0,498.0,0,0,1,7467,2422,11.8500003815
1587292678727541572,32991,1587292678718980026,,2,81.0,0.0,469.0,0,0,1,7472,2417,11.8699998856
1587292678745838603,32992,1587292678754980026,,2,140.0,0.0,445.0,0,0,1,7478,2410,11.8699998856
1587292678786152040,32993,1587292678787980026,,2,140.0,0.0,436.0,0,0,1,7483,2404,11.8699998856
1587292678824797822,32994,1587292678832980026,,2,139.0,0.0,416.0,0,0,1,7490,2397,11.8699998856
1587292678870520478,32995,1587292678865980026,,2,118.0,0.0,395.0,0,0,1,7496,2390,11.8500003815
1587292678896287509,32996,1587292678901980026,,2,140.0,0.0,475.0,0,0,1,7501,2384,11.8900003433
1587292678935186572,32997,1587292678934980026,,2,141.0,0.0,425.0,0,0,1,7507,2379,11.8500003815
1587292678963122197,32998,1587292678968980026,,2,81.0,0.0,405.0,0,0,1,7513,2373,11.8699998856
1587292679001858342,32999,1587292679001980026,,2,81.0,0.0,477.0,0,0,1,7518,2367,11.8500003815
1587292679044770686,33000,1587292679034980026,,2,117.0,0.0,427.0,0,0,1,7524,2361,11.8500003815
1587292679061725217,33001,1587292679073980026,,2,118.0,0.0,401.0,0,0,1,7531,2355,11.8500003815
1587292679103757665,33002,1587292679106980026,,2,138.0,0.0,414.0,0,0,1,7533,2353,11.8699998856
1587292679144014696,33003,1587292679150980026,,2,81.0,0.0,407.0,0,0,1,7535,2352,11.8699998856
1587292679187045946,33004,1587292679183980026,,2,149.0,0.0,392.0,0,0,1,7535,2352,11.8900003433
1587292679210127821,33005,1587292679219980026,,2,118.0,0.0,475.0,0,0,1,7535,2351,11.8699998856
1587292679249600321,33006,1587292679252980026,,2,80.0,0.0,418.0,0,0,1,7535,2352,11.8699998856
1587292679285146363,33007,1587292679287980026,,2,139.0,0.0,423.0,0,0,1,7535,2352,11.8900003433
1587292679321204696,33008,1587292679320980026,,2,80.0,0.0,422.0,0,0,1,7536,2352,11.8699998856
1587292679361647301,33009,1587292679353980026,,2,80.0,0.0,399.0,0,0,1,7535,2352,11.8900003433
1587292679385359436,33010,1587292679388980026,,2,117.0,0.0,477.0,0,0,1,7535,2352,11.8500003815
1587292679423339696,33011,1587292679421980026,,2,142.0,0.0,474.0,0,0,1,7535,2352,11.8699998856
1587292679450530061,33012,1587292679454980026,,2,141.0,0.0,446.0,0,0,1,7535,2352,11.8699998856
1587292679486687926,33013,1587292679487980026,,2,80.0,0.0,417.0,0,0,1,7535,2352,11.8699998856
1587292679531068967,33014,1587292679520980026,,2,141.0,0.0,395.0,0,0,1,7535,2352,11.8699998856
1587292679548297821,33015,1587292679552980026,,2,136.0,0.0,388.0,0,0,1,7536,2352,11.8500003815
1587292679589694436,33016,1587292679585980026,,2,139.0,0.0,377.0,0,0,1,7535,2352,11.8699998856
1587292679611338655,33017,1587292679620980026,,2,139.0,0.0,469.0,0,0,1,7536,2352,11.8699998856
1587292679649032665,33018,1587292679654980026,,2,81.0,0.0,420.0,0,0,1,7535,2352,11.8699998856
1587292679692318082,33019,1587292679687980026,,2,118.0,0.0,419.0,0,0,1,7535,2352,11.8699998856
1587292679712016571,33020,1587292679721980026,,2,142.0,0.0,396.0,0,0,1,7535,2352,11.8699998856
1587292679753696259,33021,1587292679754980026,,2,80.0,0.0,471.0,0,0,1,7537,2352,11.8699998856
1587292679794427144,33022,1587292679787980026,,2,162.0,0.0,425.0,0,0,1,7548,2352,11.8699998856
1587292679812838290,33023,1587292679823980026,,2,138.0,0.0,411.0,0,0,1,7570,2362,11.8699998856
1587292679854903707,33024,1587292679856980026,,2,140.0,0.0,475.0,0,0,1,7595,2380,11.8699998856
1587292679894648290,33025,1587292679889980026,,2,81.0,0.0,425.0,0,0,1,7625,2402,11.8500003815
1587292679914452613,33026,1587292679923980026,,2,118.0,0.0,426.0,0,0,1,7656,2431,11.8699998856
1587292679956459227,33027,1587292679956980026,,2,81.0,0.0,399.0,0,0,1,7689,2461,11.8699998856
1587292679996002717,33028,1587292679989980026,,2,141.0,0.0,390.0,0,0,1,7721,2494,11.8699998856
1587292680020276884,33029,1587292680023980026,,2,175.0,0.0,383.0,0,0,1,7754,2526,11.8500003815
1587292680053790529,33030,1587292680056980026,,2,81.0,0.0,410.0,0,0,1,7788,2558,11.8699998856
1587292680094441988,33031,1587292680100980026,,2,81.0,0.0,491.0,0,0,1,7832,2601,11.8699998856
1587292680138805373,33032,1587292680133980026,,2,139.0,0.0,437.0,0,0,1,7864,2634,11.8699998856
1587292680180134852,33033,1587292680166980026,,2,139.0,0.0,402.0,0,0,1,7899,2666,11.8699998856
1587292680196087873,33034,1587292680206980026,,2,135.0,0.0,396.0,0,0,1,7937,2705,11.8699998856
1587292680238555998,33035,1587292680239980026,,2,81.0,0.0,389.0,0,0,1,7969,2738,11.8699998856
1587292680278284019,33036,1587292680285980026,,2,140.0,0.0,397.0,0,0,1,8015,2786,11.8500003815
1587292680319568654,33037,1587292680318980026,,2,141.0,0.0,386.0,0,0,1,8047,2819,11.8699998856
1587292680345849488,33038,1587292680353980026,,2,160.0,0.0,462.0,0,0,1,8080,2854,11.8699998856
1587292680380099331,33039,1587292680386980026,,2,119.0,0.0,437.0,0,0,1,8114,2887,11.8699998856
1587292680422920790,33040,1587292680419980026,,2,141.0,0.0,410.0,0,0,1,8147,2921,11.8699998856
1587292680444982821,33041,1587292680456980026,,2,140.0,0.0,401.0,0,0,1,8184,2958,11.8699998856
1587292680484216363,33042,1587292680489980026,,2,79.0,0.0,478.0,0,0,1,8216,2991,11.8699998856
1587292680512967821,33043,1587292680522980026,,2,118.0,0.0,432.0,0,0,1,8249,3023,11.8699998856
1587292680548736102,33044,1587292680555980026,,2,139.0,0.0,401.0,0,0,1,8281,3059,11.8699998856
1587292680591568706,33045,1587292680588980026,,2,81.0,0.0,411.0,0,0,1,8314,3092,11.8699998856
1587292680616963290,33046,1587292680626980026,,2,119.0,0.0,405.0,0,0,1,8352,3130,11.8699998856
1587292680660338394,33047,1587292680659980026,,2,141.0,0.0,415.0,0,0,1,8385,3161,11.8699998856
1587292680684659748,33048,1587292680693980026,,2,119.0,0.0,401.0,0,0,1,8421,3195,11.8699998856
1587292680720536154,33049,1587292680726980026,,2,144.0,0.0,475.0,0,0,1,8454,3229,11.8699998856
1587292680753707560,33050,1587292680761980026,,2,80.0,0.0,447.0,0,0,1,8487,3263,11.8699998856
1587292680794186883,33051,1587292680794980026,,2,122.0,0.0,419.0,0,0,1,8521,3296,11.8699998856
1587292680820805008,33052,1587292680828980026,,2,80.0,0.0,478.0,0,0,1,8554,3332,11.8500003815
1587292680856803029,33053,1587292680861980026,,2,118.0,0.0,516.0,0,0,1,8589,3365,11.8500003815
1587292680899808654,33054,1587292680894980026,,2,141.0,0.0,460.0,0,0,1,8621,3397,11.8500003815
1587292680922115790,33055,1587292680928980026,,2,140.0,0.0,504.0,0,0,1,8655,3432,11.8699998856
1587292680963673342,33056,1587292680962169019,,2,80.0,0.0,446.0,0,0,1,8688,3466,11.8699998856
1587292680986321050,33057,1587292680999169019,,2,139.0,0.0,431.0,0,0,1,8726,3503,11.8699998856
1587292681027878550,33058,1587292681033169019,,2,142.0,0.0,396.0,0,0,1,8757,3536,11.8699998856
1587292681067736883,33059,1587292681065169019,,2,142.0,0.0,401.0,0,0,1,8789,3569,11.8699998856
1587292681085120425,33060,1587292681099169019,,2,80.0,0.0,383.0,0,0,1,8821,3603,11.8699998856
1587292681130539279,33061,1587292681133169019,,2,141.0,0.0,407.0,0,0,1,8856,3637,11.8699998856
1587292681169243654,33062,1587292681166169019,,2,118.0,0.0,416.0,0,0,1,8889,3669,11.8500003815
1587292681193470946,33063,1587292681203169019,,2,138.0,0.0,398.0,0,0,1,8926,3708,11.8900003433
1587292681232829904,33064,1587292681237169019,,2,141.0,0.0,427.0,0,0,1,8958,3740,11.8500003815
1587292681256938810,33065,1587292681272169019,,2,122.0,0.0,402.0,0,0,1,8993,3776,11.8500003815
1587292681298028237,33066,1587292681305169019,,2,139.0,0.0,470.0,0,0,1,9025,3808,11.8699998856
1587292681339979539,33067,1587292681338169019,,2,80.0,0.0,455.0,0,0,1,9057,3841,11.8699998856
1587292681368196050,33068,1587292681373169019,,2,142.0,0.0,415.0,0,0,1,9091,3875,11.8699998856
1587292681408513185,33069,1587292681406169019,,2,142.0,0.0,400.0,0,0,1,9123,3909,11.8500003815
1587292681432403133,33070,1587292681444169019,,2,118.0,0.0,421.0,0,0,1,9163,3947,11.8699998856
1587292681474510841,33071,1587292681477169019,,2,139.0,0.0,435.0,0,0,1,9196,3979,11.8500003815
1587292681513821206,33072,1587292681510169019,,2,118.0,0.0,403.0,0,0,1,9227,4012,11.8699998856
1587292681533012716,33073,1587292681543169019,,2,141.0,0.0,413.0,0,0,1,9261,4044,11.8699998856
