%time,field.header.seq,field.header.stamp,field.header.frame_id,field.bumper,field.cliff,field.sonar,field.illumination,field.led,field.button,field.torque,field.left_encoder,field.right_encoder,field.battery
1587293557035518507,35370,1587293557031095952,,2,81.0,0.0,412.0,0,0,1,141712,-142711,11.8500003815
1587293557075176527,35371,1587293557064095952,,2,132.0,0.0,488.0,0,0,1,141712,-142711,11.8500003815
1587293557097395486,35372,1587293557097095952,,2,115.0,0.0,426.0,0,0,1,141712,-142711,11.8500003815
1587293557142307673,35373,1587293557131095952,,2,132.0,0.0,433.0,0,0,1,141712,-142711,11.8500003815
1587293557178742517,35374,1587293557164095952,,2,116.0,0.0,424.0,0,0,1,141711,-142711,11.8500003815
1587293557196409027,35375,1587293557198095952,,2,131.0,0.0,395.0,0,0,1,141711,-142711,11.8500003815
1587293557240785225,35376,1587293557232095952,,2,116.0,0.0,391.0,0,0,1,141711,-142711,11.8500003815
1587293557280597361,35377,1587293557265095952,,2,116.0,0.0,380.0,0,0,1,141712,-142711,11.8500003815
1587293557303225798,35378,1587293557303095952,,2,116.0,0.0,479.0,0,0,1,141711,-142711,11.8500003815
1587293557345988767,35379,1587293557337095952,,2,131.0,0.0,515.0,0,0,1,141712,-142711,11.8500003815
1587293557384778506,35380,1587293557370095952,,2,81.0,0.0,533.0,0,0,1,141711,-142711,11.8699998856
1587293557407443246,35381,1587293557405095952,,2,132.0,0.0,451.0,0,0,1,141712,-142711,11.8500003815
1587293557450635329,35382,1587293557438095952,,2,81.0,0.0,509.0,0,0,1,141712,-142711,11.8500003815
1587293557490223090,35383,1587293557471095952,,2,162.0,0.0,468.0,0,0,1,141712,-142711,11.8500003815
1587293557508044183,35384,1587293557506095952,,2,133.0,0.0,426.0,0,0,1,141712,-142711,11.8500003815
1587293557550776996,35385,1587293557540095952,,2,129.0,0.0,490.0,0,0,1,141712,-142711,11.8500003815
1587293557591631579,35386,1587293557573095952,,2,130.0,0.0,428.0,0,0,1,141712,-142711,11.8500003815
1587293557609431631,35387,1587293557607095952,,2,131.0,0.0,425.0,0,0,1,141712,-142711,11.8500003815
1587293557653007881,35388,1587293557641095952,,2,131.0,0.0,427.0,0,0,1,141712,-142711,11.8500003815
1587293557695528610,35389,1587293557674095952,,2,81.0,0.0,406.0,0,0,1,141711,-142711,11.8699998856
1587293557711141840,35390,1587293557711095952,,2,115.0,0.0,411.0,0,0,1,141712,-142711,11.8699998856
1587293557754073767,35391,1587293557744095952,,2,116.0,0.0,490.0,0,0,1,141712,-142712,11.8500003815
1587293557793913767,35392,1587293557777095952,,2,81.0,0.0,451.0,0,0,1,141711,-142711,11.8500003815
1587293557814554808,35393,1587293557815095952,,2,115.0,0.0,438.0,0,0,1,141712,-142711,11.8699998856
1587293557859122777,35394,1587293557848095952,,2,116.0,0.0,501.0,0,0,1,141711,-142711,11.8500003815
1587293557898081110,35395,1587293557881095952,,2,81.0,0.0,458.0,0,0,1,141711,-142711,11.8500003815
1587293557914751735,35396,1587293557917095952,,2,81.0,0.0,438.0,0,0,1,141711,-142711,11.8500003815
1587293557960768454,35397,1587293557950095952,,2,81.0,0.0,406.0,0,0,1,141712,-142711,11.8500003815
1587293557999147204,35398,1587293557983095952,,2,131.0,0.0,387.0,0,0,1,141712,-142711,11.8500003815
1587293558018023715,35399,1587293558018095952,,2,81.0,0.0,400.0,0,0,1,141712,-142711,11.8500003815
1587293558062043506,35400,1587293558051095952,,2,81.0,0.0,410.0,0,0,1,141712,-142711,11.8500003815
1587293558100881735,35401,1587293558084095952,,2,130.0,0.0,393.0,0,0,1,141712,-142711,11.8699998856
1587293558123592204,35402,1587293558119095952,,2,131.0,0.0,384.0,0,0,1,141711,-142711,11.8500003815
1587293558162141892,35403,1587293558153095952,,2,81.0,0.0,404.0,0,0,1,141712,-142711,11.8500003815
1587293558202686110,35404,1587293558186095952,,2,80.0,0.0,409.0,0,0,1,141711,-142711,11.8500003815
1587293558223186839,35405,1587293558222095952,,2,134.0,0.0,401.0,0,0,1,141711,-142711,11.8500003815
1587293558266765329,35406,1587293558255095952,,2,116.0,0.0,408.0,0,0,1,141712,-142711,11.8500003815
1587293558308265798,35407,1587293558288095952,,2,132.0,0.0,483.0,0,0,1,141711,-142711,11.8500003815
1587293558326404183,35408,1587293558324095952,,2,132.0,0.0,428.0,0,0,1,141712,-142711,11.8500003815
1587293558367299079,35409,1587293558357095952,,2,81.0,0.0,397.0,0,0,1,141711,-142711,11.8500003815
1587293558408958714,35410,1587293558390095952,,2,81.0,0.0,392.0,0,0,1,141712,-142711,11.8699998856
1587293558425265746,35411,1587293558424095952,,2,81.0,0.0,470.0,0,0,1,141712,-142711,11.8500003815
1587293558467749704,35412,1587293558457095952,,2,81.0,0.0,424.0,0,0,1,141712,-142711,11.8500003815
1587293558507259079,35413,1587293558490095952,,2,132.0,0.0,420.0,0,0,1,141711,-142711,11.8699998856
1587293558524823662,35414,1587293558526095952,,2,115.0,0.0,418.0,0,0,1,141712,-142711,11.8500003815
1587293558573183402,35415,1587293558559095952,,2,129.0,0.0,488.0,0,0,1,141712,-142711,11.8500003815
1587293558612283193,35416,1587293558592095952,,2,81.0,0.0,424.0,0,0,1,141712,-142711,11.8500003815
1587293558629034860,35417,1587293558632095952,,2,81.0,0.0,412.0,0,0,1,141712,-142711,11.8500003815
1587293558673957256,35418,1587293558666095952,,2,130.0,0.0,396.0,0,0,1,141712,-142711,11.8500003815
1587293558711696839,35419,1587293558699095952,,2,81.0,0.0,478.0,0,0,1,141712,-142711,11.8500003815
1587293558734374756,35420,1587293558732095952,,2,81.0,0.0,422.0,0,0,1,141712,-142711,11.8699998856
1587293558777953610,35421,1587293558766095952,,2,132.0,0.0,421.0,0,0,1,141711,-142711,11.8500003815
1587293558816812464,35422,1587293558799095952,,2,81.0,0.0,391.0,0,0,1,141712,-142711,11.8500003815
1587293558835388975,35423,1587293558832095952,,2,130.0,0.0,479.0,0,0,1,141712,-142711,11.8699998856
1587293558879592360,35424,1587293558866095952,,2,134.0,0.0,427.0,0,0,1,141712,-142711,11.8500003815
1587293558919795589,35425,1587293558899095952,,2,132.0,0.0,424.0,0,0,1,141712,-142711,11.8500003815
1587293558937307256,35426,1587293558934095952,,2,132.0,0.0,405.0,0,0,1,141712,-142711,11.8500003815
1587293558982024079,35427,1587293558968095952,,2,131.0,0.0,408.0,0,0,1,141711,-142711,11.8400001526
1587293559023964391,35428,1587293559015776048,,2,116.0,0.0,487.0,0,0,1,141712,-142711,11.8400001526
1587293559042197256,35429,1587293559052776048,,2,132.0,0.0,429.0,0,0,1,141711,-142711,11.8500003815
1587293559082079495,35430,1587293559086776048,,2,132.0,0.0,420.0,0,0,1,141712,-142711,11.8500003815
1587293559122923454,35431,1587293559131776048,,2,81.0,0.0,398.0,0,0,1,141712,-142711,11.8500003815
1587293559162677881,35432,1587293559165776048,,2,81.0,0.0,385.0,0,0,1,141712,-142711,11.8500003815
1587293559185660537,35433,1587293559197776048,,2,116.0,0.0,404.0,0,0,1,141712,-142711,11.8699998856
1587293559232311787,35434,1587293559231776048,,2,130.0,0.0,415.0,0,0,1,141712,-142711,11.8500003815
1587293559273417464,35435,1587293559264776048,,2,116.0,0.0,418.0,0,0,1,141711,-142711,11.8500003815
1587293559291661839,35436,1587293559300776048,,2,134.0,0.0,393.0,0,0,1,141712,-142711,11.8500003815
1587293559331355797,35437,1587293559334776048,,2,133.0,0.0,386.0,0,0,1,141712,-142711,11.8500003815
1587293559369760641,35438,1587293559380776048,,2,132.0,0.0,390.0,0,0,1,141711,-142711,11.8500003815
1587293559410028766,35439,1587293559414776048,,2,81.0,0.0,375.0,0,0,1,141712,-142711,11.8500003815
1587293559449756735,35440,1587293559447776048,,2,131.0,0.0,468.0,0,0,1,141712,-142711,11.8500003815
1587293559476016579,35441,1587293559482776048,,2,115.0,0.0,531.0,0,0,1,141711,-142711,11.8699998856
1587293559511982620,35442,1587293559515776048,,2,132.0,0.0,435.0,0,0,1,141712,-142711,11.8500003815
1587293559555233610,35443,1587293559549776048,,2,133.0,0.0,521.0,0,0,1,141712,-142711,11.8500003815
1587293559579243141,35444,1587293559583776048,,2,133.0,0.0,433.0,0,0,1,141712,-142711,11.8500003815
1587293559618185016,35445,1587293559616776048,,2,81.0,0.0,495.0,0,0,1,141712,-142711,11.8699998856
1587293559640308297,35446,1587293559653776048,,2,116.0,0.0,437.0,0,0,1,141712,-142711,11.8699998856
1587293559683628141,35447,1587293559687776048,,2,132.0,0.0,500.0,0,0,1,141711,-142711,11.8500003815
1587293559723009547,35448,1587293559720776048,,2,115.0,0.0,461.0,0,0,1,141711,-142711,11.8699998856
1587293559746123506,35449,1587293559754776048,,2,130.0,0.0,420.0,0,0,1,141712,-142711,11.8500003815
1587293559784205537,35450,1587293559787776048,,2,134.0,0.0,403.0,0,0,1,141712,-142712,11.8500003815
1587293559825968349,35451,1587293559821776048,,2,81.0,0.0,387.0,0,0,1,141712,-142711,11.8500003815
1587293559849509547,35452,1587293559853776048,,2,119.0,0.0,373.0,0,0,1,141711,-142711,11.8500003815
1587293559885723662,35453,1587293559886776048,,2,133.0,0.0,386.0,0,0,1,141712,-142711,11.8500003815
1587293559921654078,35454,1587293559935776048,,2,132.0,0.0,420.0,0,0,1,141712,-142711,11.8699998856
1587293559962746214,35455,1587293559969776048,,2,81.0,0.0,397.0,0,0,1,141711,-142711,11.8500003815
1587293560006796839,35456,1587293560002776048,,2,116.0,0.0,380.0,0,0,1,141712,-142712,11.8699998856
1587293560025990380,35457,1587293560037776048,,2,131.0,0.0,412.0,0,0,1,141711,-142711,11.8500003815
1587293560065460016,35458,1587293560071776048,,2,131.0,0.0,488.0,0,0,1,141711,-142711,11.8699998856
1587293560109464078,35459,1587293560104776048,,2,81.0,0.0,423.0,0,0,1,141712,-142711,11.8500003815
1587293560128732151,35460,1587293560138776048,,2,116.0,0.0,420.0,0,0,1,141712,-142701,11.8400001526
1587293560168647880,35461,1587293560172776048,,2,81.0,0.0,423.0,0,0,1,141724,-142683,11.8400001526
1587293560213286839,35462,1587293560205776048,,2,81.0,0.0,488.0,0,0,1,141744,-142658,11.8400001526
1587293560230242724,35463,1587293560242776048,,2,116.0,0.0,431.0,0,0,1,141775,-142625,11.8500003815
1587293560271085849,35464,1587293560276776048,,2,81.0,0.0,496.0,0,0,1,141802,-142593,11.8400001526
1587293560317392880,35465,1587293560309776048,,2,81.0,0.0,429.0,0,0,1,141832,-142560,11.8400001526
1587293560334010432,35466,1587293560347776048,,2,81.0,0.0,500.0,0,0,1,141868,-142523,11.8500003815
1587293560375217151,35467,1587293560381776048,,2,132.0,0.0,462.0,0,0,1,141900,-142491,11.8400001526
1587293560417952412,35468,1587293560414776048,,2,81.0,0.0,440.0,0,0,1,141933,-142457,11.8500003815
1587293560434544234,35469,1587293560447776048,,2,116.0,0.0,445.0,0,0,1,141964,-142423,11.8500003815
1587293560477228766,35470,1587293560481776048,,2,81.0,0.0,441.0,0,0,1,141996,-142389,11.8400001526
1587293560517304911,35471,1587293560514776048,,2,117.0,0.0,411.0,0,0,1,142030,-142357,11.8400001526
1587293560534641682,35472,1587293560547776048,,2,116.0,0.0,489.0,0,0,1,142065,-142324,11.8500003815
1587293560578504026,35473,1587293560581776048,,2,131.0,0.0,448.0,0,0,1,142098,-142291,11.8400001526
1587293560619060380,35474,1587293560614776048,,2,81.0,0.0,431.0,0,0,1,142130,-142260,11.8400001526
1587293560636954911,35475,1587293560648776048,,2,138.0,0.0,401.0,0,0,1,142163,-142227,11.8400001526
1587293560678343505,35476,1587293560682776048,,2,117.0,0.0,485.0,0,0,1,142196,-142194,11.8400001526
1587293560721155849,35477,1587293560715776048,,2,132.0,0.0,453.0,0,0,1,142229,-142161,11.8400001526
1587293560740667828,35478,1587293560749776048,,2,123.0,0.0,414.0,0,0,1,142263,-142126,11.8400001526
1587293560778719599,35479,1587293560783776048,,2,133.0,0.0,505.0,0,0,1,142296,-142093,11.8400001526
1587293560820807359,35480,1587293560816776048,,2,129.0,0.0,425.0,0,0,1,142329,-142060,11.8400001526
1587293560839260328,35481,1587293560851776048,,2,81.0,0.0,497.0,0,0,1,142364,-142027,11.8400001526
1587293560878801891,35482,1587293560884776048,,2,80.0,0.0,440.0,0,0,1,142396,-141994,11.8400001526
1587293560924658661,35483,1587293560917776048,,2,81.0,0.0,405.0,0,0,1,142428,-141962,11.8500003815
1587293560942680224,35484,1587293560952776048,,2,132.0,0.0,423.0,0,0,1,142462,-141928,11.8400001526
1587293560981297828,35485,1587293560985776048,,2,116.0,0.0,416.0,0,0,1,142494,-141896,11.8500003815
1587293561030890536,35486,1587293561032776048,,2,81.0,0.0,502.0,0,0,1,142542,-141849,11.8400001526
1587293561076766318,35487,1587293561065776048,,2,81.0,0.0,431.0,0,0,1,142576,-141816,11.8400001526
1587293561101265901,35488,1587293561111776048,,2,81.0,0.0,408.0,0,0,1,142623,-141773,11.8400001526
1587293561143709963,35489,1587293561144776048,,2,118.0,0.0,485.0,0,0,1,142656,-141740,11.8400001526
1587293561188610849,35490,1587293561177776048,,2,81.0,0.0,520.0,0,0,1,142689,-141708,11.8400001526
1587293561202205640,35491,1587293561215776048,,2,133.0,0.0,538.0,0,0,1,142727,-141673,11.8400001526
1587293561244749130,35492,1587293561248776048,,2,81.0,0.0,547.0,0,0,1,142759,-141640,11.8500003815
1587293561288358713,35493,1587293561281776048,,2,135.0,0.0,462.0,0,0,1,142792,-141608,11.8400001526
1587293561305150172,35494,1587293561316776048,,2,132.0,0.0,444.0,0,0,1,142828,-141572,11.8400001526
1587293561348067776,35495,1587293561350776048,,2,134.0,0.0,410.0,0,0,1,142862,-141539,11.8400001526
1587293561384596994,35496,1587293561397776048,,2,81.0,0.0,501.0,0,0,1,142908,-141494,11.8400001526
1587293561424879078,35497,1587293561430776048,,2,133.0,0.0,474.0,0,0,1,142941,-141461,11.8400001526
1587293561470133765,35498,1587293561463776048,,2,116.0,0.0,419.0,0,0,1,142972,-141428,11.8500003815
1587293561487653505,35499,1587293561496776048,,2,81.0,0.0,491.0,0,0,1,143005,-141396,11.8400001526
1587293561529211630,35500,1587293561535345983,,2,81.0,0.0,426.0,0,0,1,143040,-141363,11.8400001526
1587293561561733869,35501,1587293561584345983,,2,116.0,0.0,418.0,0,0,1,143089,-141314,11.8400001526
1587293561601384338,35502,1587293561617345983,,2,81.0,0.0,488.0,0,0,1,143121,-141280,11.8500003815
1587293561646753192,35503,1587293561650345983,,2,133.0,0.0,426.0,0,0,1,143154,-141249,11.8400001526
1587293561669169703,35504,1587293561686345983,,2,133.0,0.0,421.0,0,0,1,143189,-141215,11.8400001526
1587293561707576317,35505,1587293561719345983,,2,81.0,0.0,421.0,0,0,1,143222,-141182,11.8400001526
1587293561752240276,35506,1587293561752345983,,2,116.0,0.0,398.0,0,0,1,143253,-141149,11.8400001526
1587293561770023817,35507,1587293561786345983,,2,81.0,0.0,400.0,0,0,1,143286,-141115,11.8400001526
1587293561809530380,35508,1587293561819345983,,2,136.0,0.0,383.0,0,0,1,143321,-141083,11.8400001526
1587293561847954338,35509,1587293561865345983,,2,116.0,0.0,489.0,0,0,1,143367,-141037,11.8400001526
1587293561888521734,35510,1587293561898345983,,2,118.0,0.0,422.0,0,0,1,143400,-141005,11.8400001526
1587293561930265484,35511,1587293561931345983,,2,81.0,0.0,426.0,0,0,1,143431,-140972,11.8400001526
1587293561952943973,35512,1587293561966345983,,2,81.0,0.0,405.0,0,0,1,143466,-140938,11.8500003815
1587293561988808036,35513,1587293562000345983,,2,117.0,0.0,395.0,0,0,1,143498,-140906,11.8400001526
1587293562030731786,35514,1587293562033345983,,2,134.0,0.0,385.0,0,0,1,143532,-140872,11.8400001526
1587293562052491057,35515,1587293562065345983,,2,135.0,0.0,458.0,0,0,1,143566,-140839,11.8400001526
1587293562093016213,35516,1587293562099345983,,2,81.0,0.0,435.0,0,0,1,143600,-140807,11.8400001526
1587293562132455588,35517,1587293562132345983,,2,117.0,0.0,412.0,0,0,1,143635,-140773,11.8400001526
1587293562155167619,35518,1587293562164345983,,2,117.0,0.0,392.0,0,0,1,143666,-140741,11.8500003815
1587293562193284130,35519,1587293562198345983,,2,117.0,0.0,412.0,0,0,1,143698,-140709,11.8400001526
1587293562231449859,35520,1587293562231345983,,2,81.0,0.0,392.0,0,0,1,143732,-140675,11.8400001526
1587293562256585848,35521,1587293562265345983,,2,136.0,0.0,478.0,0,0,1,143766,-140641,11.8500003815
1587293562293767098,35522,1587293562299345983,,2,164.0,0.0,513.0,0,0,1,143798,-140607,11.8400001526
1587293562332887619,35523,1587293562332345983,,2,81.0,0.0,459.0,0,0,1,143832,-140572,11.8400001526
1587293562360609598,35524,1587293562366345983,,2,117.0,0.0,500.0,0,0,1,143867,-140538,11.8400001526
1587293562394619702,35525,1587293562400345983,,2,116.0,0.0,526.0,0,0,1,143900,-140505,11.8400001526
1587293562435968661,35526,1587293562450345983,,2,138.0,0.0,483.0,0,0,1,143948,-140455,11.8400001526
1587293562478333504,35527,1587293562483345983,,2,134.0,0.0,425.0,0,0,1,143981,-140423,11.8400001526
1587293562499894650,35528,1587293562518345983,,2,133.0,0.0,401.0,0,0,1,144016,-140389,11.8400001526
1587293562540947932,35529,1587293562551345983,,2,81.0,0.0,414.0,0,0,1,144049,-140356,11.8400001526
1587293562581097567,35530,1587293562584345983,,2,81.0,0.0,486.0,0,0,1,144081,-140319,11.8400001526
1587293562601129234,35531,1587293562619345983,,2,81.0,0.0,441.0,0,0,1,144114,-140284,11.8500003815
1587293562642464390,35532,1587293562652345983,,2,81.0,0.0,423.0,0,0,1,144149,-140250,11.8400001526
1587293562684276161,35533,1587293562685345983,,2,135.0,0.0,420.0,0,0,1,144182,-140217,11.8400001526
1587293562702613504,35534,1587293562722345983,,2,117.0,0.0,499.0,0,0,1,144216,-140181,11.8400001526
1587293562746547515,35535,1587293562755345983,,2,136.0,0.0,452.0,0,0,1,144248,-140148,11.8500003815
1587293562785645067,35536,1587293562788345983,,2,81.0,0.0,438.0,0,0,1,144280,-140116,11.8400001526
1587293562803607827,35537,1587293562822345983,,2,116.0,0.0,422.0,0,0,1,144316,-140082,11.8500003815
1587293562849428661,35538,1587293562855345983,,2,136.0,0.0,489.0,0,0,1,144347,-140049,11.8400001526
1587293562890455275,35539,1587293562888345983,,2,81.0,0.0,515.0,0,0,1,144380,-140014,11.8400001526
1587293562907998088,35540,1587293562924345983,,2,135.0,0.0,531.0,0,0,1,144415,-139979,11.8400001526
1587293562949245640,35541,1587293562957345983,,2,81.0,0.0,452.0,0,0,1,144448,-139947,11.8199996948
1587293562993438452,35542,1587293563003345983,,2,116.0,0.0,519.0,0,0,1,144494,-139899,11.8199996948
1587293563028946890,35543,1587293563036345983,,2,139.0,0.0,442.0,0,0,1,144525,-139867,11.8400001526
1587293563051080275,35544,1587293563070345983,,2,82.0,0.0,502.0,0,0,1,144559,-139833,11.8500003815
1587293563094628608,35545,1587293563103345983,,2,116.0,0.0,443.0,0,0,1,144595,-139799,11.8199996948
1587293563133173660,35546,1587293563136345983,,2,81.0,0.0,430.0,0,0,1,144629,-139765,11.8400001526
1587293563152169806,35547,1587293563171345983,,2,81.0,0.0,484.0,0,0,1,144663,-139729,11.8400001526
1587293563194188765,35548,1587293563204345983,,2,81.0,0.0,465.0,0,0,1,144695,-139697,11.8400001526
1587293563234070431,35549,1587293563237345983,,2,81.0,0.0,419.0,0,0,1,144730,-139663,11.8400001526
1587293563255144754,35550,1587293563270345983,,2,136.0,0.0,400.0,0,0,1,144762,-139631,11.8500003815
1587293563294808921,35551,1587293563303345983,,2,135.0,0.0,393.0,0,0,1,144795,-139598,11.8400001526
1587293563335824962,35552,1587293563337345983,,2,133.0,0.0,412.0,0,0,1,144828,-139564,11.8400001526
1587293563357789702,35553,1587293563374345983,,2,136.0,0.0,397.0,0,0,1,144865,-139527,11.8400001526
1587293563400254337,35554,1587293563407345983,,2,136.0,0.0,409.0,0,0,1,144899,-139494,11.8400001526
1587293563438494806,35555,1587293563444345983,,2,138.0,0.0,403.0,0,0,1,144934,-139459,11.8400001526
1587293563480901265,35556,1587293563477345983,,2,136.0,0.0,391.0,0,0,1,144966,-139426,11.8400001526
1587293563503482202,35557,1587293563512345983,,2,81.0,0.0,405.0,0,0,1,145002,-139391,11.8199996948
1587293563540366837,35558,1587293563546345983,,2,136.0,0.0,398.0,0,0,1,145033,-139358,11.8500003815
1587293563580003452,35559,1587293563596345983,,2,81.0,0.0,399.0,0,0,1,145083,-139307,11.8400001526
1587293563625447827,35560,1587293563629345983,,2,135.0,0.0,417.0,0,0,1,145118,-139275,11.8400001526
1587293563646218035,35561,1587293563667345983,,2,136.0,0.0,402.0,0,0,1,145156,-139236,11.8400001526
1587293563687495483,35562,1587293563700345983,,2,81.0,0.0,477.0,0,0,1,145189,-139204,11.8400001526
1587293563727403504,35563,1587293563733345983,,2,136.0,0.0,428.0,0,0,1,145220,-139171,11.8400001526
1587293563749451577,35564,1587293563767345983,,2,136.0,0.0,432.0,0,0,1,145253,-139137,11.8400001526
1587293563791231681,35565,1587293563800345983,,2,137.0,0.0,425.0,0,0,1,145286,-139105,11.8400001526
1587293563831541785,35566,1587293563833345983,,2,81.0,0.0,404.0,0,0,1,145319,-139072,11.8400001526
1587293563848831212,35567,1587293563868345983,,2,134.0,0.0,388.0,0,0,1,145352,-139036,11.8400001526
1587293563893685952,35568,1587293563901345983,,2,117.0,0.0,390.0,0,0,1,145387,-139004,11.8500003815
1587293563931802306,35569,1587293563934345983,,2,137.0,0.0,382.0,0,0,1,145421,-138971,11.8400001526
1587293563957649077,35570,1587293563972345983,,2,135.0,0.0,384.0,0,0,1,145458,-138935,11.8400001526
1587293564003857410,35571,1587293564005345983,,2,117.0,0.0,379.0,0,0,1,145489,-138899,11.8400001526
1587293564044737775,35572,1587293564020057050,,2,137.0,0.0,475.0,0,0,1,145523,-138867,11.8400001526
1587293564064604702,35573,1587293564061057050,,2,135.0,0.0,433.0,0,0,1,145563,-138828,11.8400001526
1587293564107060275,35574,1587293564094057050,,2,118.0,0.0,432.0,0,0,1,145598,-138794,11.8400001526
1587293564146294233,35575,1587293564127057050,,2,81.0,0.0,495.0,0,0,1,145630,-138759,11.8400001526
1587293564164620275,35576,1587293564162057050,,2,136.0,0.0,443.0,0,0,1,145664,-138725,11.8400001526
1587293564206091525,35577,1587293564195057050,,2,138.0,0.0,498.0,0,0,1,145697,-138692,11.8400001526
1587293564247296889,35578,1587293564228057050,,2,81.0,0.0,462.0,0,0,1,145731,-138660,11.8500003815
1587293564266178660,35579,1587293564265057050,,2,136.0,0.0,422.0,0,0,1,145766,-138624,11.8400001526
1587293564306099285,35580,1587293564298057050,,2,117.0,0.0,426.0,0,0,1,145798,-138591,11.8400001526
1587293564348851473,35581,1587293564331057050,,2,81.0,0.0,397.0,0,0,1,145830,-138559,11.8400001526
1587293564366602202,35582,1587293564367057050,,2,137.0,0.0,398.0,0,0,1,145866,-138523,11.8400001526
1587293564407928504,35583,1587293564400057050,,2,118.0,0.0,480.0,0,0,1,145899,-138490,11.8400001526
1587293564448644181,35584,1587293564433057050,,2,135.0,0.0,419.0,0,0,1,145932,-138457,11.8400001526
1587293564468925014,35585,1587293564471057050,,2,121.0,0.0,406.0,0,0,1,145967,-138421,11.8400001526
1587293564510383191,35586,1587293564504057050,,2,137.0,0.0,411.0,0,0,1,146002,-138389,11.8400001526
1587293564552823608,35587,1587293564537057050,,2,81.0,0.0,389.0,0,0,1,146033,-138357,11.8400001526
1587293564573087670,35588,1587293564577057050,,2,81.0,0.0,415.0,0,0,1,146072,-138316,11.8400001526
1587293564620125691,35589,1587293564610057050,,2,81.0,0.0,436.0,0,0,1,146106,-138283,11.8400001526
1587293564659469337,35590,1587293564643057050,,2,136.0,0.0,403.0,0,0,1,146140,-138251,11.8199996948
1587293564682505483,35591,1587293564682057050,,2,81.0,0.0,403.0,0,0,1,146179,-138211,11.8400001526
1587293564730958035,35592,1587293564715057050,,2,136.0,0.0,393.0,0,0,1,146211,-138179,11.8400001526
1587293564773741212,35593,1587293564748057050,,2,135.0,0.0,383.0,0,0,1,146242,-138148,11.8400001526
1587293564792298556,35594,1587293564788057050,,2,135.0,0.0,412.0,0,0,1,146280,-138109,11.8400001526
1587293564834139181,35595,1587293564821057050,,2,138.0,0.0,401.0,0,0,1,146312,-138077,11.8400001526
1587293564875978556,35596,1587293564872057050,,2,81.0,0.0,433.0,0,0,1,146362,-138026,11.8400001526
1587293564918105639,35597,1587293564905057050,,2,144.0,0.0,499.0,0,0,1,146395,-137993,11.8400001526
1587293564959478087,35598,1587293564938057050,,2,81.0,0.0,460.0,0,0,1,146430,-137962,11.8400001526
1587293564976944129,35599,1587293564976057050,,2,81.0,0.0,444.0,0,0,1,146468,-137926,11.8400001526
1587293565016718868,35600,1587293565009057050,,2,81.0,0.0,420.0,0,0,1,146499,-137893,11.8400001526
1587293565056993139,35601,1587293565042057050,,2,137.0,0.0,416.0,0,0,1,146534,-137861,11.8400001526
1587293565078974337,35602,1587293565076057050,,2,137.0,0.0,428.0,0,0,1,146566,-137827,11.8400001526
1587293565115254962,35603,1587293565110057050,,2,136.0,0.0,397.0,0,0,1,146601,-137795,11.8400001526
1587293565157653608,35604,1587293565143057050,,2,137.0,0.0,398.0,0,0,1,146633,-137760,11.8400001526
1587293565180033816,35605,1587293565178057050,,2,81.0,0.0,413.0,0,0,1,146667,-137726,11.8400001526
1587293565220185170,35606,1587293565211057050,,2,81.0,0.0,397.0,0,0,1,146701,-137694,11.8400001526
1587293565253255691,35607,1587293565246057050,,2,81.0,0.0,477.0,0,0,1,146738,-137659,11.8400001526
1587293565292823087,35608,1587293565279057050,,2,117.0,0.0,522.0,0,0,1,146768,-137627,11.8400001526
1587293565318655170,35609,1587293565314057050,,2,138.0,0.0,535.0,0,0,1,146805,-137593,11.8199996948
1587293565359196889,35610,1587293565347057050,,2,128.0,0.0,547.0,0,0,1,146838,-137561,11.8400001526
1587293565398194441,35611,1587293565381057050,,2,81.0,0.0,551.0,0,0,1,146872,-137528,11.8400001526
1587293565415281941,35612,1587293565415057050,,2,137.0,0.0,463.0,0,0,1,146906,-137494,11.8400001526
1587293565457413920,35613,1587293565448057050,,2,117.0,0.0,445.0,0,0,1,146939,-137462,11.8400001526
1587293565497418868,35614,1587293565481057050,,2,135.0,0.0,423.0,0,0,1,146973,-137430,11.8400001526
1587293565516420691,35615,1587293565517057050,,2,117.0,0.0,424.0,0,0,1,147008,-137396,11.8400001526
1587293565556346003,35616,1587293565550057050,,2,81.0,0.0,484.0,0,0,1,147041,-137361,11.8400001526
1587293565596374285,35617,1587293565583057050,,2,117.0,0.0,433.0,0,0,1,147073,-137329,11.8400001526
1587293565620967045,35618,1587293565618057050,,2,136.0,0.0,432.0,0,0,1,147105,-137296,11.8400001526
1587293565664141628,35619,1587293565651057050,,2,137.0,0.0,496.0,0,0,1,147140,-137262,11.8400001526
1587293565705995795,35620,1587293565685057050,,2,117.0,0.0,437.0,0,0,1,147174,-137229,11.8400001526
1587293565722313972,35621,1587293565721057050,,2,81.0,0.0,409.0,0,0,1,147209,-137192,11.8400001526
1587293565765541889,35622,1587293565754057050,,2,136.0,0.0,396.0,0,0,1,147241,-137160,11.8400001526
1587293565801819493,35623,1587293565803057050,,2,81.0,0.0,496.0,0,0,1,147289,-137115,11.8000001907
1587293565844782566,35624,1587293565836057050,,2,137.0,0.0,452.0,0,0,1,147323,-137081,11.8400001526
1587293565887435326,35625,1587293565869057050,,2,81.0,0.0,423.0,0,0,1,147354,-137049,11.8400001526
1587293565904366264,35626,1587293565906057050,,2,137.0,0.0,490.0,0,0,1,147391,-137012,11.8400001526
1587293565946441889,35627,1587293565939057050,,2,117.0,0.0,431.0,0,0,1,147426,-136980,11.8400001526
1587293565987436368,35628,1587293565972057050,,2,137.0,0.0,428.0,0,0,1,147459,-136947,11.8400001526
1587293566007372461,35629,1587293566011057050,,2,136.0,0.0,443.0,0,0,1,147497,-136907,11.8400001526
1587293566050916316,35630,1587293566044057050,,2,81.0,0.0,410.0,0,0,1,147529,-136876,11.8400001526
1587293566090316159,35631,1587293566077057050,,2,118.0,0.0,438.0,0,0,1,147561,-136842,11.8400001526
1587293566111621836,35632,1587293566114057050,,2,137.0,0.0,412.0,0,0,1,147596,-136805,11.8400001526
1587293566155569128,35633,1587293566147057050,,2,118.0,0.0,428.0,0,0,1,147629,-136771,11.8400001526
1587293566195001316,35634,1587293566180057050,,2,136.0,0.0,484.0,0,0,1,147664,-136738,11.8400001526
1587293566213607357,35635,1587293566215057050,,2,81.0,0.0,424.0,0,0,1,147701,-136704,11.8400001526
1587293566257769597,35636,1587293566248057050,,2,81.0,0.0,487.0,0,0,1,147734,-136671,11.8400001526
1587293566297760222,35637,1587293566281057050,,2,136.0,0.0,425.0,0,0,1,147766,-136639,11.8500003815
1587293566316516524,35638,1587293566317057050,,2,136.0,0.0,430.0,0,0,1,147802,-136604,11.8400001526
1587293566359011888,35639,1587293566350057050,,2,138.0,0.0,431.0,0,0,1,147835,-136572,11.8400001526
1587293566398320430,35640,1587293566383057050,,2,137.0,0.0,404.0,0,0,1,147868,-136540,11.8400001526
1587293566420709961,35641,1587293566417057050,,2,120.0,0.0,486.0,0,0,1,147901,-136504,11.8400001526
1587293566456846420,35642,1587293566451057050,,2,81.0,0.0,423.0,0,0,1,147934,-136470,11.8400001526
1587293566505005690,35643,1587293566484057050,,2,136.0,0.0,487.0,0,0,1,147969,-136437,11.8400001526
1587293566525568607,35644,1587293566541017930,,2,81.0,0.0,463.0,0,0,1,148007,-136395,11.8400001526
1587293566572325795,35645,1587293566574017930,,2,135.0,0.0,418.0,0,0,1,148038,-136363,11.8400001526
1587293566602752461,35646,1587293566613017930,,2,144.0,0.0,403.0,0,0,1,148077,-136324,11.8400001526
1587293566644197357,35647,1587293566646017930,,2,81.0,0.0,394.0,0,0,1,148111,-136292,11.8400001526
1587293566669026628,35648,1587293566681017930,,2,81.0,0.0,398.0,0,0,1,148147,-136256,11.8400001526
1587293566704798972,35649,1587293566715017930,,2,117.0,0.0,383.0,0,0,1,148179,-136220,11.8400001526
1587293566748338295,35650,1587293566748017930,,2,117.0,0.0,409.0,0,0,1,148211,-136186,11.8400001526
1587293566769270274,35651,1587293566781017930,,2,136.0,0.0,488.0,0,0,1,148244,-136153,11.8199996948
1587293566808324388,35652,1587293566814017930,,2,134.0,0.0,424.0,0,0,1,148278,-136122,11.8400001526
1587293566853072044,35653,1587293566864017930,,2,137.0,0.0,414.0,0,0,1,148323,-136071,11.8199996948
1587293566894432253,35654,1587293566897017930,,2,137.0,0.0,407.0,0,0,1,148356,-136038,11.8400001526
1587293566933470690,35655,1587293566930017930,,2,117.0,0.0,440.0,0,0,1,148389,-136006,11.8400001526
1587293566959122878,35656,1587293566964017930,,2,135.0,0.0,411.0,0,0,1,148423,-135971,11.8400001526
1587293566998611888,35657,1587293566997017930,,2,136.0,0.0,393.0,0,0,1,148458,-135937,11.8400001526
1587293567016698086,35658,1587293567036017930,,2,136.0,0.0,394.0,0,0,1,148495,-135897,11.8500003815
1587293567060518294,35659,1587293567069017930,,2,136.0,0.0,408.0,0,0,1,148527,-135865,11.8400001526
1587293567099492878,35660,1587293567102017930,,2,81.0,0.0,390.0,0,0,1,148562,-135831,11.8400001526
1587293567121688763,35661,1587293567139017930,,2,81.0,0.0,395.0,0,0,1,148597,-135795,11.8400001526
1587293567164925274,35662,1587293567172017930,,2,136.0,0.0,412.0,0,0,1,148629,-135762,11.8400001526
1587293567206836732,35663,1587293567205017930,,2,81.0,0.0,441.0,0,0,1,148663,-135728,11.8400001526
1587293567229893138,35664,1587293567240017930,,2,81.0,0.0,499.0,0,0,1,148700,-135692,11.8500003815
1587293567268928555,35665,1587293567274017930,,2,137.0,0.0,439.0,0,0,1,148734,-135658,11.8400001526
1587293567308763242,35666,1587293567307017930,,2,137.0,0.0,410.0,0,0,1,148767,-135625,11.8400001526
1587293567331229805,35667,1587293567340017930,,2,136.0,0.0,413.0,0,0,1,148800,-135593,11.8400001526
1587293567368637305,35668,1587293567374017930,,2,151.0,0.0,408.0,0,0,1,148833,-135558,11.8400001526
1587293567407183398,35669,1587293567423017930,,2,117.0,0.0,433.0,0,0,1,148880,-135509,11.8400001526
1587293567447889232,35670,1587293567456017930,,2,117.0,0.0,438.0,0,0,1,148915,-135476,11.8400001526
1587293567497435846,35671,1587293567489017930,,2,137.0,0.0,404.0,0,0,1,148949,-135443,11.8500003815
1587293567511412253,35672,1587293567525017930,,2,81.0,0.0,391.0,0,0,1,148985,-135407,11.8400001526
1587293567556266628,35673,1587293567558017930,,2,137.0,0.0,395.0,0,0,1,149018,-135376,11.8400001526
1587293567591545273,35674,1587293567610017930,,2,138.0,0.0,492.0,0,0,1,149067,-135324,11.8400001526
1587293567632831211,35675,1587293567643017930,,2,118.0,0.0,439.0,0,0,1,149100,-135292,11.8400001526
1587293567675646784,35676,1587293567676017930,,2,140.0,0.0,427.0,0,0,1,149133,-135260,11.8400001526
1587293567698577930,35677,1587293567712017930,,2,118.0,0.0,492.0,0,0,1,149167,-135224,11.8400001526
1587293567740299284,35678,1587293567745017930,,2,118.0,0.0,433.0,0,0,1,149201,-135190,11.8400001526
1587293567774157200,35679,1587293567781017930,,2,81.0,0.0,499.0,0,0,1,149237,-135154,11.8400001526
1587293567816270794,35680,1587293567814017930,,2,136.0,0.0,527.0,0,0,1,149270,-135121,11.8400001526
1587293567834606471,35681,1587293567848017930,,2,139.0,0.0,461.0,0,0,1,149303,-135088,11.8400001526
1587293567878338086,35682,1587293567881017930,,2,137.0,0.0,444.0,0,0,1,149337,-135054,11.8400001526
1587293567920360794,35683,1587293567933017930,,2,81.0,0.0,452.0,0,0,1,149387,-135003,11.8400001526
1587293567960534700,35684,1587293567966017930,,2,81.0,0.0,416.0,0,0,1,149421,-134970,11.8400001526
1587293567982640273,35685,1587293568002017930,,2,137.0,0.0,420.0,0,0,1,149455,-134933,11.8400001526
1587293568024506471,35686,1587293568035017930,,2,137.0,0.0,405.0,0,0,1,149490,-134901,11.8400001526
1587293568066909752,35687,1587293568068017930,,2,81.0,0.0,438.0,0,0,1,149523,-134867,11.8199996948
1587293568088165065,35688,1587293568105017930,,2,137.0,0.0,412.0,0,0,1,149559,-134832,11.8400001526
1587293568131876263,35689,1587293568138017930,,2,137.0,0.0,484.0,0,0,1,149591,-134798,11.8400001526
1587293568171998034,35690,1587293568171017930,,2,118.0,0.0,519.0,0,0,1,149623,-134764,11.8199996948
1587293568189205794,35691,1587293568206017930,,2,81.0,0.0,533.0,0,0,1,149657,-134731,11.8199996948
1587293568231799023,35692,1587293568239017930,,2,81.0,0.0,550.0,0,0,1,149691,-134697,11.8400001526
1587293568271752565,35693,1587293568272017930,,2,81.0,0.0,545.0,0,0,1,149724,-134663,11.8400001526
1587293568290455325,35694,1587293568308017930,,2,81.0,0.0,458.0,0,0,1,149760,-134628,11.8199996948
1587293568335159283,35695,1587293568341017930,,2,118.0,0.0,528.0,0,0,1,149793,-134595,11.8400001526
1587293568376528554,35696,1587293568374017930,,2,81.0,0.0,440.0,0,0,1,149827,-134563,11.8400001526
1587293568395456158,35697,1587293568408017930,,2,148.0,0.0,415.0,0,0,1,149860,-134529,11.8400001526
1587293568436306627,35698,1587293568441017930,,2,118.0,0.0,486.0,0,0,1,149892,-134497,11.8400001526
1587293568477126106,35699,1587293568491017930,,2,117.0,0.0,473.0,0,0,1,149940,-134448,11.8400001526
1587293568521556940,35700,1587293568524017930,,2,137.0,0.0,431.0,0,0,1,149975,-134415,11.8400001526
1587293568542548033,35701,1587293568559017930,,2,118.0,0.0,437.0,0,0,1,150008,-134379,11.8400001526
1587293568584379231,35702,1587293568592017930,,2,168.0,0.0,495.0,0,0,1,150041,-134348,11.8400001526
1587293568617038294,35703,1587293568627017930,,2,81.0,0.0,436.0,0,0,1,150074,-134314,11.8199996948
1587293568658959388,35704,1587293568660017930,,2,150.0,0.0,438.0,0,0,1,150106,-134282,11.8400001526
1587293568681067252,35705,1587293568695017930,,2,119.0,0.0,418.0,0,0,1,150140,-134248,11.8400001526
1587293568718253033,35706,1587293568728017930,,2,137.0,0.0,485.0,0,0,1,150172,-134213,11.8400001526
1587293568763773919,35707,1587293568762017930,,2,139.0,0.0,439.0,0,0,1,150206,-134181,11.8400001526
1587293568787322721,35708,1587293568802017930,,2,81.0,0.0,416.0,0,0,1,150248,-134143,11.8400001526
1587293568831015742,35709,1587293568835017930,,2,138.0,0.0,481.0,0,0,1,150280,-134110,11.8400001526
1587293568866658710,35710,1587293568876017930,,2,137.0,0.0,523.0,0,0,1,150319,-134070,11.8400001526
1587293568905786315,35711,1587293568909017930,,2,81.0,0.0,456.0,0,0,1,150353,-134039,11.8400001526
1587293568934030533,35712,1587293568942017930,,2,138.0,0.0,444.0,0,0,1,150384,-134007,11.8400001526
1587293568974911679,35713,1587293568975017930,,2,81.0,0.0,438.0,0,0,1,150416,-133973,11.8400001526
1587293569014175898,35714,1587293569015704078,,2,139.0,0.0,445.0,0,0,1,150459,-133928,11.8400001526
1587293569056128450,35715,1587293569048704078,,2,139.0,0.0,503.0,0,0,1,150492,-133894,11.8400001526
1587293569077021731,35716,1587293569082704078,,2,131.0,0.0,528.0,0,0,1,150527,-133862,11.8500003815
1587293569119613398,35717,1587293569115704078,,2,140.0,0.0,555.0,0,0,1,150561,-133829,11.8400001526
1587293569136967304,35718,1587293569150704078,,2,137.0,0.0,460.0,0,0,1,150592,-133796,11.8400001526
1587293569178614752,35719,1587293569183704078,,2,81.0,0.0,507.0,0,0,1,150626,-133763,11.8400001526
1587293569220489908,35720,1587293569216704078,,2,117.0,0.0,535.0,0,0,1,150659,-133732,11.8400001526
1587293569241109179,35721,1587293569254704078,,2,81.0,0.0,460.0,0,0,1,150699,-133695,11.8400001526
1587293569285063241,35722,1587293569287704078,,2,118.0,0.0,427.0,0,0,1,150730,-133661,11.8400001526
1587293569325507408,35723,1587293569320704078,,2,140.0,0.0,404.0,0,0,1,150764,-133628,11.8400001526
1587293569342962356,35724,1587293569355704078,,2,147.0,0.0,481.0,0,0,1,150799,-133595,11.8400001526
1587293569386606054,35725,1587293569388704078,,2,137.0,0.0,514.0,0,0,1,150834,-133563,11.8400001526
1587293569424463762,35726,1587293569421704078,,2,138.0,0.0,443.0,0,0,1,150865,-133530,11.8199996948
1587293569441567408,35727,1587293569457704078,,2,149.0,0.0,511.0,0,0,1,150900,-133496,11.8400001526
1587293569485991210,35728,1587293569490704078,,2,139.0,0.0,446.0,0,0,1,150933,-133464,11.8400001526
1587293569524710273,35729,1587293569523704078,,2,138.0,0.0,417.0,0,0,1,150968,-133430,11.8199996948
1587293569548216679,35730,1587293569561704078,,2,136.0,0.0,410.0,0,0,1,151004,-133393,11.8400001526
1587293569591055325,35731,1587293569594704078,,2,137.0,0.0,485.0,0,0,1,151038,-133362,11.8400001526
1587293569632801210,35732,1587293569627704078,,2,140.0,0.0,429.0,0,0,1,151071,-133328,11.8400001526
1587293569650725273,35733,1587293569663704078,,2,137.0,0.0,412.0,0,0,1,151107,-133295,11.8500003815
1587293569693180168,35734,1587293569696704078,,2,81.0,0.0,401.0,0,0,1,151140,-133261,11.8400001526
1587293569735203658,35735,1587293569729704078,,2,81.0,0.0,484.0,0,0,1,151172,-133229,11.8500003815
1587293569752614439,35736,1587293569765704078,,2,81.0,0.0,520.0,0,0,1,151206,-133196,11.8400001526
1587293569793660012,35737,1587293569798704078,,2,140.0,0.0,491.0,0,0,1,151241,-133162,11.8400001526
1587293569835870325,35738,1587293569831704078,,2,81.0,0.0,455.0,0,0,1,151273,-133129,11.8400001526
1587293569853071731,35739,1587293569865704078,,2,141.0,0.0,512.0,0,0,1,151307,-133095,11.8199996948
1587293569894830585,35740,1587293569898704078,,2,140.0,0.0,465.0,0,0,1,151339,-133062,11.8400001526
1587293569936559335,35741,1587293569931704078,,2,117.0,0.0,451.0,0,0,1,151372,-133030,11.8400001526
1587293569954158554,35742,1587293569967704078,,2,116.0,0.0,500.0,0,0,1,151407,-132995,11.8400001526
1587293569995456054,35743,1587293570000704078,,2,117.0,0.0,466.0,0,0,1,151438,-132962,11.8400001526
1587293570037677929,35744,1587293570033704078,,2,81.0,0.0,515.0,0,0,1,151472,-132929,11.8400001526
1587293570059471887,35745,1587293570070704078,,2,137.0,0.0,449.0,0,0,1,151509,-132894,11.8400001526
1587293570102673814,35746,1587293570103704078,,2,81.0,0.0,413.0,0,0,1,151542,-132860,11.8500003815
1587293570143746574,35747,1587293570143704078,,2,118.0,0.0,420.0,0,0,1,151581,-132821,11.8199996948
1587293570186333397,35748,1587293570176704078,,2,81.0,0.0,394.0,0,0,1,151615,-132790,11.8400001526
1587293570214228189,35749,1587293570211704078,,2,81.0,0.0,410.0,0,0,1,151648,-132756,11.8400001526
1587293570248387877,35750,1587293570244704078,,2,136.0,0.0,489.0,0,0,1,151681,-132724,11.8400001526
1587293570271368502,35751,1587293570284704078,,2,118.0,0.0,433.0,0,0,1,151720,-132682,11.8400001526
1587293570315262199,35752,1587293570317704078,,2,139.0,0.0,408.0,0,0,1,151755,-132649,11.8199996948
1587293570353639908,35753,1587293570350704078,,2,81.0,0.0,423.0,0,0,1,151791,-132616,11.8400001526
1587293570372487199,35754,1587293570385704078,,2,81.0,0.0,493.0,0,0,1,151826,-132581,11.8400001526
1587293570414835324,35755,1587293570418704078,,2,137.0,0.0,432.0,0,0,1,151857,-132547,11.8400001526
1587293570456592616,35756,1587293570451704078,,2,137.0,0.0,429.0,0,0,1,151891,-132515,11.8400001526
1587293570476258085,35757,1587293570488704078,,2,137.0,0.0,405.0,0,0,1,151928,-132479,11.8199996948
1587293570520831574,35758,1587293570521704078,,2,81.0,0.0,487.0,0,0,1,151961,-132446,11.8400001526
1587293570561704387,35759,1587293570554704078,,2,81.0,0.0,450.0,0,0,1,151993,-132413,11.8400001526
1587293570578801522,35760,1587293570591704078,,2,81.0,0.0,443.0,0,0,1,152028,-132375,11.8400001526
1587293570622131574,35761,1587293570624704078,,2,136.0,0.0,412.0,0,0,1,152063,-132342,11.8400001526
1587293570663031522,35762,1587293570657704078,,2,148.0,0.0,428.0,0,0,1,152097,-132310,11.8500003815
1587293570680620220,35763,1587293570694704078,,2,118.0,0.0,421.0,0,0,1,152130,-132273,11.8400001526
1587293570724681783,35764,1587293570727704078,,2,140.0,0.0,493.0,0,0,1,152162,-132239,11.8400001526
1587293570766483605,35765,1587293570760704078,,2,144.0,0.0,448.0,0,0,1,152195,-132207,11.8400001526
1587293570784411470,35766,1587293570796704078,,2,81.0,0.0,435.0,0,0,1,152231,-132171,11.8400001526
1587293570831714283,35767,1587293570829704078,,2,81.0,0.0,439.0,0,0,1,152264,-132136,11.8400001526
1587293570869774283,35768,1587293570862704078,,2,140.0,0.0,414.0,0,0,1,152296,-132101,11.8400001526
1587293570888382668,35769,1587293570901704078,,2,81.0,0.0,497.0,0,0,1,152334,-132062,11.8500003815
1587293570933175376,35770,1587293570934704078,,2,140.0,0.0,449.0,0,0,1,152368,-132030,11.8199996948
1587293570970915637,35771,1587293570967704078,,2,138.0,0.0,491.0,0,0,1,152400,-131996,11.8400001526
1587293570995090012,35772,1587293571004704078,,2,81.0,0.0,438.0,0,0,1,152435,-131960,11.8400001526
1587293571037045637,35773,1587293571037704078,,2,137.0,0.0,415.0,0,0,1,152467,-131928,11.8400001526
1587293571078513085,35774,1587293571087704078,,2,81.0,0.0,444.0,0,0,1,152518,-131878,11.8400001526
1587293571121272199,35775,1587293571120704078,,2,81.0,0.0,506.0,0,0,1,152551,-131844,11.8400001526
1587293571159915064,35776,1587293571153704078,,2,118.0,0.0,444.0,0,0,1,152584,-131810,11.8400001526
1587293571183089855,35777,1587293571187704078,,2,138.0,0.0,420.0,0,0,1,152619,-131776,11.8400001526
1587293571219518553,35778,1587293571221704078,,2,137.0,0.0,436.0,0,0,1,152651,-131742,11.8400001526
1587293571260641157,35779,1587293571270704078,,2,118.0,0.0,446.0,0,0,1,152698,-131692,11.8400001526
1587293571301015428,35780,1587293571303704078,,2,139.0,0.0,417.0,0,0,1,152732,-131660,11.8400001526
1587293571344721105,35781,1587293571336704078,,2,81.0,0.0,415.0,0,0,1,152765,-131626,11.8400001526
1587293571364476678,35782,1587293571373704078,,2,81.0,0.0,497.0,0,0,1,152804,-131588,11.8400001526
1587293571404012772,35783,1587293571406704078,,2,139.0,0.0,449.0,0,0,1,152837,-131555,11.8400001526
1587293571446935168,35784,1587293571439704078,,2,160.0,0.0,419.0,0,0,1,152870,-131521,11.8400001526
1587293571474735168,35785,1587293571474704078,,2,118.0,0.0,427.0,0,0,1,152905,-131487,11.8400001526
1587293571514445168,35786,1587293571507704078,,2,138.0,0.0,408.0,0,0,1,152938,-131454,11.8199996948
1587293571539415220,35787,1587293571546446897,,2,138.0,0.0,420.0,0,0,1,152976,-131415,11.8400001526
1587293571583501209,35788,1587293571579446897,,2,137.0,0.0,399.0,0,0,1,153010,-131381,11.8400001526
1587293571624340168,35789,1587293571612446897,,2,137.0,0.0,482.0,0,0,1,153044,-131348,11.8400001526
1587293571645430168,35790,1587293571649446897,,2,81.0,0.0,477.0,0,0,1,153082,-131311,11.8400001526
1587293571686902043,35791,1587293571682446897,,2,81.0,0.0,447.0,0,0,1,153114,-131279,11.8199996948
1587293571730507511,35792,1587293571734446897,,2,140.0,0.0,473.0,0,0,1,153163,-131227,11.8400001526
1587293571773343813,35793,1587293571767446897,,2,81.0,0.0,444.0,0,0,1,153198,-131195,11.8400001526
1587293571796381366,35794,1587293571805446897,,2,143.0,0.0,426.0,0,0,1,153236,-131158,11.8400001526
1587293571840396313,35795,1587293571838446897,,2,81.0,0.0,491.0,0,0,1,153268,-131124,11.8199996948
1587293571879962407,35796,1587293571871446897,,2,137.0,0.0,432.0,0,0,1,153301,-131089,11.8400001526
1587293571898282355,35797,1587293571909446897,,2,81.0,0.0,413.0,0,0,1,153338,-131052,11.8400001526
1587293571941794386,35798,1587293571942446897,,2,81.0,0.0,399.0,0,0,1,153372,-131021,11.8500003815
1587293571981434490,35799,1587293571975446897,,2,118.0,0.0,416.0,0,0,1,153403,-130987,11.8400001526
1587293572005356834,35800,1587293572010446897,,2,81.0,0.0,484.0,0,0,1,153438,-130951,11.8199996948
1587293572042463657,35801,1587293572044446897,,2,81.0,0.0,449.0,0,0,1,153469,-130919,11.8400001526
1587293572082416574,35802,1587293572077446897,,2,81.0,0.0,410.0,0,0,1,153503,-130886,11.8400001526
1587293572105542042,35803,1587293572112446897,,2,81.0,0.0,493.0,0,0,1,153538,-130850,11.8199996948
1587293572145580532,35804,1587293572145446897,,2,118.0,0.0,456.0,0,0,1,153573,-130817,11.8400001526
1587293572184592980,35805,1587293572184446897,,2,136.0,0.0,440.0,0,0,1,153611,-130779,11.8199996948
1587293572223322511,35806,1587293572217446897,,2,117.0,0.0,439.0,0,0,1,153645,-130747,11.8400001526
1587293572248783397,35807,1587293572252446897,,2,140.0,0.0,413.0,0,0,1,153679,-130711,11.8400001526
1587293572290404594,35808,1587293572285446897,,2,134.0,0.0,403.0,0,0,1,153712,-130678,11.8199996948
1587293572332953032,35809,1587293572330446897,,2,163.0,0.0,427.0,0,0,1,153754,-130634,11.8199996948
1587293572378550844,35810,1587293572363446897,,2,118.0,0.0,442.0,0,0,1,153790,-130600,11.8400001526
1587293572395541834,35811,1587293572405446897,,2,118.0,0.0,446.0,0,0,1,153831,-130557,11.8400001526
1587293572440483084,35812,1587293572438446897,,2,81.0,0.0,419.0,0,0,1,153865,-130524,11.8400001526
1587293572483026417,35813,1587293572471446897,,2,138.0,0.0,421.0,0,0,1,153897,-130492,11.8400001526
1587293572499301886,35814,1587293572513446897,,2,81.0,0.0,403.0,0,0,1,153938,-130452,11.8500003815
1587293572541286365,35815,1587293572546446897,,2,139.0,0.0,396.0,0,0,1,153969,-130418,11.8400001526
1587293572583073136,35816,1587293572579446897,,2,82.0,0.0,408.0,0,0,1,154001,-130387,11.8400001526
1587293572605676678,35817,1587293572615446897,,2,136.0,0.0,417.0,0,0,1,154036,-130353,11.8199996948
1587293572647836834,35818,1587293572648446897,,2,81.0,0.0,431.0,0,0,1,154071,-130320,11.8400001526
1587293572689554386,35819,1587293572681446897,,2,139.0,0.0,405.0,0,0,1,154103,-130285,11.8400001526
1587293572707690167,35820,1587293572717446897,,2,81.0,0.0,485.0,0,0,1,154139,-130251,11.8199996948
1587293572748733032,35821,1587293572750446897,,2,138.0,0.0,450.0,0,0,1,154171,-130220,11.8199996948
1587293572790926990,35822,1587293572783446897,,2,81.0,0.0,498.0,0,0,1,154204,-130188,11.8400001526
1587293572809095011,35823,1587293572821446897,,2,137.0,0.0,443.0,0,0,1,154239,-130150,11.8199996948
1587293572849336157,35824,1587293572854446897,,2,118.0,0.0,415.0,0,0,1,154271,-130116,11.8400001526
1587293572891801469,35825,1587293572887446897,,2,117.0,0.0,400.0,0,0,1,154304,-130082,11.8400001526
1587293572914729386,35826,1587293572923446897,,2,138.0,0.0,486.0,0,0,1,154342,-130048,11.8400001526
1587293572953399490,35827,1587293572956446897,,2,81.0,0.0,518.0,0,0,1,154375,-130016,11.8500003815
1587293572988573500,35828,1587293572990446897,,2,140.0,0.0,471.0,0,0,1,154406,-129982,11.8400001526
1587293573028064386,35829,1587293573023446897,,2,137.0,0.0,453.0,0,0,1,154439,-129951,11.8400001526
1587293573048850844,35830,1587293573057446897,,2,136.0,0.0,434.0,0,0,1,154473,-129918,11.8400001526
1587293573088594803,35831,1587293573091446897,,2,81.0,0.0,419.0,0,0,1,154505,-129885,11.8400001526
1587293573127236573,35832,1587293573124446897,,2,118.0,0.0,397.0,0,0,1,154537,-129851,11.8199996948
1587293573149481105,35833,1587293573159446897,,2,81.0,0.0,418.0,0,0,1,154571,-129817,11.8400001526
1587293573193087198,35834,1587293573192446897,,2,117.0,0.0,420.0,0,0,1,154605,-129783,11.8199996948
1587293573231922615,35835,1587293573225446897,,2,118.0,0.0,489.0,0,0,1,154640,-129752,11.8400001526
1587293573251624646,35836,1587293573259446897,,2,136.0,0.0,433.0,0,0,1,154672,-129719,11.8199996948
1587293573298181782,35837,1587293573292446897,,2,81.0,0.0,405.0,0,0,1,154703,-129686,11.8400001526
1587293573338718396,35838,1587293573325446897,,2,81.0,0.0,419.0,0,0,1,154737,-129653,11.8400001526
1587293573361602250,35839,1587293573370446897,,2,81.0,0.0,433.0,0,0,1,154782,-129611,11.8400001526
1587293573405531886,35840,1587293573403446897,,2,82.0,0.0,433.0,0,0,1,154816,-129577,11.8400001526
1587293573451102302,35841,1587293573436446897,,2,118.0,0.0,409.0,0,0,1,154849,-129544,11.8400001526
1587293573468699125,35842,1587293573476446897,,2,81.0,0.0,404.0,0,0,1,154888,-129504,11.8400001526
1587293573511058813,35843,1587293573509446897,,2,82.0,0.0,392.0,0,0,1,154923,-129472,11.8400001526
1587293573550272459,35844,1587293573558446897,,2,136.0,0.0,402.0,0,0,1,154971,-129426,11.8400001526
1587293573591377198,35845,1587293573591446897,,2,118.0,0.0,403.0,0,0,1,155004,-129394,11.8400001526
1587293573633491469,35846,1587293573624446897,,2,117.0,0.0,395.0,0,0,1,155038,-129362,11.8400001526
1587293573650965792,35847,1587293573659446897,,2,117.0,0.0,410.0,0,0,1,155072,-129328,11.8400001526
1587293573697080584,35848,1587293573692446897,,2,81.0,0.0,419.0,0,0,1,155105,-129295,11.8400001526
1587293573739968969,35849,1587293573725446897,,2,138.0,0.0,393.0,0,0,1,155139,-129262,11.8400001526
1587293573756816365,35850,1587293573766446897,,2,137.0,0.0,394.0,0,0,1,155179,-129223,11.8500003815
1587293573800629021,35851,1587293573799446897,,2,81.0,0.0,402.0,0,0,1,155211,-129190,11.8400001526
1587293573842636521,35852,1587293573848446897,,2,81.0,0.0,498.0,0,0,1,155258,-129141,11.8400001526
1587293573889718188,35853,1587293573881446897,,2,118.0,0.0,463.0,0,0,1,155292,-129110,11.8400001526
1587293573915363136,35854,1587293573919446897,,2,81.0,0.0,514.0,0,0,1,155329,-129073,11.8000001907
1587293573956275427,35855,1587293573952446897,,2,81.0,0.0,462.0,0,0,1,155362,-129040,11.8400001526
1587293573980471104,35856,1587293573990446897,,2,138.0,0.0,433.0,0,0,1,155400,-129001,11.8199996948
1587293574022738552,35857,1587293574008850893,,2,81.0,0.0,405.0,0,0,1,155433,-128970,11.8199996948
1587293574063554542,35858,1587293574041850893,,2,81.0,0.0,485.0,0,0,1,155466,-128938,11.8199996948
1587293574081041156,35859,1587293574075850893,,2,81.0,0.0,454.0,0,0,1,155499,-128906,11.8400001526
1587293574121465271,35860,1587293574108850893,,2,141.0,0.0,412.0,0,0,1,155529,-128872,11.8400001526
1587293574164916313,35861,1587293574141850893,,2,137.0,0.0,392.0,0,0,1,155562,-128838,11.8400001526
1587293574182541208,35862,1587293574180850893,,2,81.0,0.0,477.0,0,0,1,155603,-128800,11.8400001526
1587293574223612094,35863,1587293574213850893,,2,81.0,0.0,434.0,0,0,1,155636,-128767,11.8400001526
1587293574265261365,35864,1587293574246850893,,2,81.0,0.0,428.0,0,0,1,155667,-128733,11.8400001526
1587293574288159073,35865,1587293574281850893,,2,81.0,0.0,410.0,0,0,1,155703,-128700,11.8400001526
1587293574333150635,35866,1587293574314850893,,2,136.0,0.0,403.0,0,0,1,155735,-128668,11.8400001526
1587293574374236990,35867,1587293574347850893,,2,136.0,0.0,381.0,0,0,1,155768,-128634,11.8400001526
1587293574390625115,35868,1587293574386850893,,2,81.0,0.0,475.0,0,0,1,155807,-128596,11.8400001526
1587293574439801937,35869,1587293574419850893,,2,81.0,0.0,515.0,0,0,1,155840,-128561,11.8400001526
1587293574474762042,35870,1587293574452850893,,2,81.0,0.0,454.0,0,0,1,155875,-128529,11.8400001526
1587293574492117771,35871,1587293574491850893,,2,118.0,0.0,443.0,0,0,1,155916,-128491,11.8500003815
1587293574535541364,35872,1587293574524850893,,2,138.0,0.0,437.0,0,0,1,155947,-128458,11.8199996948
1587293574574173864,35873,1587293574557850893,,2,81.0,0.0,413.0,0,0,1,155980,-128426,11.8400001526
1587293574596868604,35874,1587293574592850893,,2,81.0,0.0,487.0,0,0,1,156015,-128392,11.8400001526
1587293574638520531,35875,1587293574625850893,,2,116.0,0.0,521.0,0,0,1,156048,-128358,11.8199996948
1587293574680154698,35876,1587293574658850893,,2,135.0,0.0,531.0,0,0,1,156080,-128326,11.8500003815
1587293574702045427,35877,1587293574692850893,,2,135.0,0.0,471.0,0,0,1,156114,-128292,11.8400001526
1587293574743076260,35878,1587293574725850893,,2,137.0,0.0,448.0,0,0,1,156147,-128257,11.8199996948
1587293574783098916,35879,1587293574758850893,,2,81.0,0.0,406.0,0,0,1,156181,-128223,11.8400001526
1587293574805132354,35880,1587293574793850893,,2,136.0,0.0,395.0,0,0,1,156215,-128189,11.8199996948
1587293574846859125,35881,1587293574827850893,,2,135.0,0.0,392.0,0,0,1,156247,-128155,11.8400001526
1587293574865021521,35882,1587293574862850893,,2,134.0,0.0,410.0,0,0,1,156281,-128121,11.8199996948
1587293574905563187,35883,1587293574895850893,,2,118.0,0.0,392.0,0,0,1,156315,-128088,11.8400001526
1587293574947644177,35884,1587293574928850893,,2,157.0,0.0,387.0,0,0,1,156349,-128054,11.8400001526
1587293574969408760,35885,1587293574963850893,,2,81.0,0.0,381.0,0,0,1,156382,-128018,11.8400001526
1587293575008964750,35886,1587293574996850893,,2,117.0,0.0,470.0,0,0,1,156414,-127984,11.8400001526
1587293575042313448,35887,1587293575030850893,,2,81.0,0.0,433.0,0,0,1,156448,-127950,11.8400001526
1587293575081945166,35888,1587293575063850893,,2,137.0,0.0,408.0,0,0,1,156480,-127918,11.8400001526
1587293575104417562,35889,1587293575096850893,,2,117.0,0.0,397.0,0,0,1,156512,-127884,11.8199996948
1587293575148622718,35890,1587293575130850893,,2,81.0,0.0,414.0,0,0,1,156544,-127851,11.8400001526
1587293575189672979,35891,1587293575163850893,,2,136.0,0.0,420.0,0,0,1,156577,-127819,11.8400001526
1587293575207124229,35892,1587293575207850893,,2,135.0,0.0,409.0,0,0,1,156620,-127774,11.8400001526
1587293575251136573,35893,1587293575240850893,,2,81.0,0.0,417.0,0,0,1,156654,-127740,11.8199996948
1587293575288939750,35894,1587293575273850893,,2,81.0,0.0,423.0,0,0,1,156687,-127706,11.8400001526
1587293575310896208,35895,1587293575309850893,,2,135.0,0.0,490.0,0,0,1,156722,-127672,11.8400001526
1587293575353689177,35896,1587293575342850893,,2,135.0,0.0,453.0,0,0,1,156756,-127639,11.8400001526
1587293575393722718,35897,1587293575375850893,,2,134.0,0.0,503.0,0,0,1,156787,-127605,11.8199996948
1587293575417394645,35898,1587293575409850893,,2,135.0,0.0,534.0,0,0,1,156819,-127571,11.8400001526
1587293575460225479,35899,1587293575442850893,,2,81.0,0.0,449.0,0,0,1,156855,-127538,11.8199996948
1587293575492479333,35900,1587293575483850893,,2,81.0,0.0,444.0,0,0,1,156897,-127496,11.8400001526
1587293575534184906,35901,1587293575516850893,,2,81.0,0.0,501.0,0,0,1,156930,-127462,11.8400001526
1587293575555752354,35902,1587293575549850893,,2,136.0,0.0,441.0,0,0,1,156963,-127428,11.8199996948
1587293575596022197,35903,1587293575582850893,,2,117.0,0.0,437.0,0,0,1,156997,-127396,11.8400001526
1587293575638629177,35904,1587293575619850893,,2,134.0,0.0,437.0,0,0,1,157034,-127359,11.8400001526
1587293575681242822,35905,1587293575652850893,,2,134.0,0.0,431.0,0,0,1,157067,-127326,11.8400001526
1587293575704225010,35906,1587293575686850893,,2,134.0,0.0,432.0,0,0,1,157100,-127291,11.8400001526
1587293575741766677,35907,1587293575720850893,,2,81.0,0.0,400.0,0,0,1,157135,-127258,11.8199996948
1587293575764303239,35908,1587293575760850893,,2,81.0,0.0,404.0,0,0,1,157176,-127218,11.8400001526
1587293575806574229,35909,1587293575793850893,,2,82.0,0.0,398.0,0,0,1,157208,-127185,11.8199996948
1587293575849623551,35910,1587293575826850893,,2,134.0,0.0,388.0,0,0,1,157239,-127153,11.8400001526
1587293575871859801,35911,1587293575859850893,,2,81.0,0.0,474.0,0,0,1,157272,-127119,11.8400001526
1587293575908581781,35912,1587293575893850893,,2,134.0,0.0,421.0,0,0,1,157305,-127086,11.8400001526
1587293575951493760,35913,1587293575941850893,,2,132.0,0.0,433.0,0,0,1,157353,-127040,11.8400001526
1587293575991531728,35914,1587293575974850893,,2,115.0,0.0,434.0,0,0,1,157387,-127006,11.8400001526
1587293576013359958,35915,1587293576009850893,,2,81.0,0.0,414.0,0,0,1,157420,-126971,11.8199996948
1587293576057029541,35916,1587293576042850893,,2,154.0,0.0,487.0,0,0,1,157455,-126938,11.8400001526
1587293576098063708,35917,1587293576075850893,,2,81.0,0.0,428.0,0,0,1,157488,-126906,11.8199996948
1587293576116226937,35918,1587293576112850893,,2,134.0,0.0,421.0,0,0,1,157524,-126868,11.8199996948
1587293576159262197,35919,1587293576145850893,,2,134.0,0.0,392.0,0,0,1,157556,-126836,11.8199996948
1587293576196392145,35920,1587293576178850893,,2,134.0,0.0,408.0,0,0,1,157588,-126804,11.8500003815
1587293576218710687,35921,1587293576212850893,,2,144.0,0.0,413.0,0,0,1,157621,-126769,11.8400001526
1587293576259364541,35922,1587293576245850893,,2,136.0,0.0,395.0,0,0,1,157654,-126735,11.8400001526
1587293576298605583,35923,1587293576278850893,,2,81.0,0.0,409.0,0,0,1,157688,-126703,11.8199996948
1587293576323401833,35924,1587293576313850893,,2,137.0,0.0,488.0,0,0,1,157722,-126668,11.8400001526
1587293576365008499,35925,1587293576346850893,,2,133.0,0.0,457.0,0,0,1,157754,-126636,11.8400001526
1587293576395343499,35926,1587293576389850893,,2,81.0,0.0,438.0,0,0,1,157796,-126591,11.8400001526
1587293576437919072,35927,1587293576422850893,,2,133.0,0.0,409.0,0,0,1,157829,-126560,11.8400001526
1587293576477444697,35928,1587293576455850893,,2,116.0,0.0,423.0,0,0,1,157863,-126527,11.8400001526
1587293576503968812,35929,1587293576489850893,,2,117.0,0.0,399.0,0,0,1,157896,-126493,11.8400001526
1587293576547212145,35930,1587293576522850893,,2,81.0,0.0,433.0,0,0,1,157929,-126459,11.8400001526
1587293576594092510,35931,1587293576565135017,,2,138.0,0.0,402.0,0,0,1,157964,-126427,11.8199996948
1587293576611968603,35932,1587293576602135017,,2,80.0,0.0,488.0,0,0,1,158000,-126391,11.8000001907
1587293576656088343,35933,1587293576635135017,,2,135.0,0.0,429.0,0,0,1,158033,-126359,11.8199996948
1587293576673739384,35934,1587293576678135017,,2,134.0,0.0,444.0,0,0,1,158073,-126315,11.8199996948
1587293576719680270,35935,1587293576711135017,,2,136.0,0.0,414.0,0,0,1,158105,-126284,11.8400001526
1587293576761473916,35936,1587293576744135017,,2,81.0,0.0,425.0,0,0,1,158138,-126251,11.8400001526
1587293576780326728,35937,1587293576782135017,,2,81.0,0.0,490.0,0,0,1,158176,-126212,11.8400001526
1587293576818545478,35938,1587293576815135017,,2,137.0,0.0,522.0,0,0,1,158209,-126178,11.8199996948
1587293576861142041,35939,1587293576861135017,,2,81.0,0.0,485.0,0,0,1,158253,-126134,11.8199996948
1587293576901914280,35940,1587293576894135017,,2,81.0,0.0,429.0,0,0,1,158288,-126104,11.8199996948
1587293576942641051,35941,1587293576927135017,,2,82.0,0.0,436.0,0,0,1,158320,-126070,11.8400001526
1587293576967019072,35942,1587293576961135017,,2,82.0,0.0,435.0,0,0,1,158351,-126037,11.8400001526
1587293577001008916,35943,1587293576994135017,,2,81.0,0.0,406.0,0,0,1,158384,-126003,11.8400001526
1587293577023844957,35944,1587293577031135017,,2,117.0,0.0,400.0,0,0,1,158422,-125967,11.8199996948
1587293577067237145,35945,1587293577064135017,,2,81.0,0.0,422.0,0,0,1,158457,-125934,11.8199996948
1587293577107100791,35946,1587293577097135017,,2,137.0,0.0,386.0,0,0,1,158488,-125901,11.8199996948
1587293577128012249,35947,1587293577131135017,,2,81.0,0.0,386.0,0,0,1,158519,-125869,11.8199996948
1587293577168220947,35948,1587293577164135017,,2,81.0,0.0,374.0,0,0,1,158552,-125838,11.8199996948
1587293577208568916,35949,1587293577197135017,,2,118.0,0.0,403.0,0,0,1,158584,-125805,11.8400001526
1587293577230617249,35950,1587293577232135017,,2,135.0,0.0,416.0,0,0,1,158619,-125769,11.8199996948
1587293577267993968,35951,1587293577265135017,,2,120.0,0.0,393.0,0,0,1,158651,-125736,11.8400001526
1587293577308246363,35952,1587293577299135017,,2,137.0,0.0,384.0,0,0,1,158683,-125704,11.8400001526
1587293577332579645,35953,1587293577335135017,,2,135.0,0.0,380.0,0,0,1,158721,-125668,11.8199996948
1587293577373775009,35954,1587293577368135017,,2,137.0,0.0,473.0,0,0,1,158754,-125637,11.8400001526
1587293577405524957,35955,1587293577405135017,,2,81.0,0.0,429.0,0,0,1,158790,-125602,11.8400001526
1587293577450161832,35956,1587293577438135017,,2,134.0,0.0,431.0,0,0,1,158824,-125569,11.8199996948
1587293577467520738,35957,1587293577472135017,,2,81.0,0.0,411.0,0,0,1,158856,-125536,11.8199996948
1587293577510655061,35958,1587293577505135017,,2,136.0,0.0,483.0,0,0,1,158891,-125504,11.8199996948
1587293577548518655,35959,1587293577539135017,,2,81.0,0.0,428.0,0,0,1,158924,-125470,11.8199996948
1587293577566936155,35960,1587293577574135017,,2,137.0,0.0,407.0,0,0,1,158960,-125434,11.8199996948
1587293577610371624,35961,1587293577607135017,,2,137.0,0.0,478.0,0,0,1,158993,-125402,11.8400001526
1587293577651589280,35962,1587293577640135017,,2,140.0,0.0,432.0,0,0,1,159026,-125370,11.8199996948
1587293577676479228,35963,1587293577678135017,,2,81.0,0.0,440.0,0,0,1,159063,-125333,11.8199996948
1587293577720613394,35964,1587293577711135017,,2,81.0,0.0,431.0,0,0,1,159096,-125300,11.8199996948
1587293577762120634,35965,1587293577744135017,,2,81.0,0.0,430.0,0,0,1,159129,-125270,11.8199996948
1587293577782254072,35966,1587293577784135017,,2,81.0,0.0,431.0,0,0,1,159169,-125230,11.8400001526
1587293577830682613,35967,1587293577817135017,,2,131.0,0.0,497.0,0,0,1,159202,-125198,11.8199996948
1587293577872814228,35968,1587293577850135017,,2,118.0,0.0,455.0,0,0,1,159236,-125166,11.8400001526
1587293577890348447,35969,1587293577887135017,,2,141.0,0.0,424.0,0,0,1,159273,-125130,11.8400001526
