%time,field.header.seq,field.header.stamp,field.header.frame_id,field.bumper,field.cliff,field.sonar,field.illumination,field.led,field.button,field.torque,field.left_encoder,field.right_encoder,field.battery
1587292500045553984,27813,1587292500040426008,,2,116.0,0.0,468.0,0,0,1,6325,4261,11.970000267
1587292500075778150,27814,1587292500082426008,,2,136.0,0.0,510.0,0,0,1,6325,4261,12.0
1587292500118276379,27815,1587292500115426008,,2,81.0,0.0,477.0,0,0,1,6325,4261,11.9799995422
1587292500141193984,27816,1587292500150426008,,2,139.0,0.0,449.0,0,0,1,6325,4261,11.9799995422
1587292500176977421,27817,1587292500183426008,,2,80.0,0.0,423.0,0,0,1,6325,4261,11.9799995422
1587292500221293879,27818,1587292500215426008,,2,135.0,0.0,386.0,0,0,1,6325,4261,11.9799995422
1587292500237198098,27819,1587292500250426008,,2,117.0,0.0,460.0,0,0,1,6325,4261,11.9799995422
1587292500281630286,27820,1587292500285426008,,2,148.0,0.0,500.0,0,0,1,6325,4261,11.9799995422
1587292500310483411,27821,1587292500320426008,,2,118.0,0.0,438.0,0,0,1,6325,4261,11.9799995422
1587292500346051796,27822,1587292500353426008,,2,136.0,0.0,406.0,0,0,1,6325,4261,11.9799995422
1587292500385110181,27823,1587292500385426008,,2,81.0,0.0,386.0,0,0,1,6325,4261,11.970000267
1587292500409052838,27824,1587292500420426008,,2,117.0,0.0,374.0,0,0,1,6325,4261,11.9799995422
1587292500451696483,27825,1587292500453426008,,2,136.0,0.0,395.0,0,0,1,6325,4261,11.970000267
1587292500496499088,27826,1587292500488426008,,2,137.0,0.0,385.0,0,0,1,6325,4261,11.9799995422
1587292500509768463,27827,1587292500519643995,,2,81.0,0.0,404.0,0,0,1,6325,4261,11.9799995422
1587292500552010285,27828,1587292500552643995,,2,137.0,0.0,381.0,0,0,1,6325,4261,11.9799995422
1587292500596997421,27829,1587292500587643995,,2,117.0,0.0,476.0,0,0,1,6325,4261,11.9799995422
1587292500614780077,27830,1587292500622643995,,2,118.0,0.0,425.0,0,0,1,6325,4261,11.9799995422
1587292500657867421,27831,1587292500655643995,,2,137.0,0.0,397.0,0,0,1,6325,4261,11.970000267
1587292500689792525,27832,1587292500701643995,,2,138.0,0.0,392.0,0,0,1,6325,4262,11.9799995422
1587292500735462785,27833,1587292500734643995,,2,116.0,0.0,377.0,0,0,1,6325,4261,11.9799995422
1587292500780354712,27834,1587292500769643995,,2,116.0,0.0,465.0,0,0,1,6325,4261,11.970000267
1587292500793804296,27835,1587292500804643995,,2,136.0,0.0,429.0,0,0,1,6325,4261,11.970000267
1587292500834837785,27836,1587292500837643995,,2,136.0,0.0,391.0,0,0,1,6325,4261,11.9799995422
1587292500879293671,27837,1587292500872643995,,2,141.0,0.0,403.0,0,0,1,6325,4261,11.9799995422
1587292500901913514,27838,1587292500906643995,,2,138.0,0.0,385.0,0,0,1,6325,4261,11.9799995422
1587292500940638983,27839,1587292500939643995,,2,81.0,0.0,462.0,0,0,1,6325,4261,11.9799995422
1587292500981256014,27840,1587292500971643995,,2,80.0,0.0,414.0,0,0,1,6325,4261,11.9799995422
1587292500998350442,27841,1587292501009643995,,2,134.0,0.0,492.0,0,0,1,6325,4261,11.9799995422
1587292501045494973,27842,1587292501042643995,,2,117.0,0.0,430.0,0,0,1,6325,4261,11.9799995422
1587292501090351275,27843,1587292501077643995,,2,131.0,0.0,405.0,0,0,1,6325,4261,11.9799995422
1587292501103877264,27844,1587292501115643995,,2,137.0,0.0,391.0,0,0,1,6325,4261,11.9799995422
1587292501153498254,27845,1587292501150643995,,2,117.0,0.0,472.0,0,0,1,6325,4261,11.9799995422
1587292501189889712,27846,1587292501183643995,,2,136.0,0.0,417.0,0,0,1,6325,4261,11.9799995422
1587292501217290077,27847,1587292501222643995,,2,80.0,0.0,392.0,0,0,1,6325,4261,11.970000267
1587292501258488046,27848,1587292501255643995,,2,81.0,0.0,411.0,0,0,1,6325,4261,11.9799995422
1587292501281206118,27849,1587292501290643995,,2,116.0,0.0,388.0,0,0,1,6325,4261,11.9799995422
1587292501315797577,27850,1587292501323643995,,2,146.0,0.0,379.0,0,0,1,6325,4261,11.9799995422
1587292501358860702,27851,1587292501355643995,,2,117.0,0.0,386.0,0,0,1,6325,4261,11.9799995422
1587292501398686171,27852,1587292501388643995,,2,80.0,0.0,403.0,0,0,1,6325,4261,11.9799995422
1587292501416742264,27853,1587292501422643995,,2,136.0,0.0,415.0,0,0,1,6325,4261,11.9799995422
1587292501461343514,27854,1587292501455643995,,2,132.0,0.0,392.0,0,0,1,6325,4261,11.9799995422
1587292501492145181,27855,1587292501502643995,,2,136.0,0.0,402.0,0,0,1,6325,4261,11.970000267
1587292501532703410,27856,1587292501535643995,,2,135.0,0.0,400.0,0,0,1,6325,4261,11.9799995422
1587292501575907160,27857,1587292501570643995,,2,168.0,0.0,381.0,0,0,1,6325,4261,11.9799995422
1587292501593769035,27858,1587292501604643995,,2,136.0,0.0,409.0,0,0,1,6325,4261,11.9799995422
1587292501633661535,27859,1587292501636643995,,2,137.0,0.0,473.0,0,0,1,6325,4262,11.9799995422
1587292501676160910,27860,1587292501669643995,,2,136.0,0.0,446.0,0,0,1,6325,4261,11.9799995422
1587292501698067785,27861,1587292501706643995,,2,81.0,0.0,410.0,0,0,1,6325,4261,11.9799995422
1587292501740086066,27862,1587292501739643995,,2,136.0,0.0,483.0,0,0,1,6325,4261,11.9799995422
1587292501788967368,27863,1587292501774643995,,2,138.0,0.0,421.0,0,0,1,6325,4261,11.9799995422
1587292501801540389,27864,1587292501811643995,,2,133.0,0.0,400.0,0,0,1,6325,4261,11.9799995422
1587292501846307004,27865,1587292501844643995,,2,80.0,0.0,380.0,0,0,1,6325,4262,11.9799995422
1587292501890224920,27866,1587292501879643995,,2,116.0,0.0,401.0,0,0,1,6325,4261,11.9799995422
1587292501909389868,27867,1587292501914643995,,2,135.0,0.0,382.0,0,0,1,6325,4261,11.9799995422
1587292501952073774,27868,1587292501947643995,,2,136.0,0.0,384.0,0,0,1,6325,4261,11.9799995422
1587292501984206587,27869,1587292501989643995,,2,81.0,0.0,384.0,0,0,1,6325,4261,11.9799995422
1587292502026876118,27870,1587292502022643995,,2,80.0,0.0,371.0,0,0,1,6325,4261,12.0
1587292502049644035,27871,1587292502057643995,,2,80.0,0.0,395.0,0,0,1,6325,4261,12.0
1587292502091205962,27872,1587292502090643995,,2,117.0,0.0,379.0,0,0,1,6325,4261,12.0
1587292502115217889,27873,1587292502124643995,,2,135.0,0.0,376.0,0,0,1,6325,4261,11.9799995422
1587292502155422524,27874,1587292502157643995,,2,137.0,0.0,376.0,0,0,1,6325,4261,11.9799995422
1587292502203907004,27875,1587292502192643995,,2,137.0,0.0,378.0,0,0,1,6325,4262,11.9799995422
1587292502216080493,27876,1587292502227643995,,2,138.0,0.0,461.0,0,0,1,6325,4261,11.9799995422
1587292502263940806,27877,1587292502260643995,,2,136.0,0.0,500.0,0,0,1,6325,4261,11.9799995422
1587292502309729608,27878,1587292502295643995,,2,127.0,0.0,455.0,0,0,1,6325,4261,11.9799995422
1587292502324716326,27879,1587292502332643995,,2,138.0,0.0,413.0,0,0,1,6325,4261,11.9799995422
1587292502367461170,27880,1587292502365643995,,2,137.0,0.0,416.0,0,0,1,6326,4261,11.9799995422
1587292502416030910,27881,1587292502400643995,,2,138.0,0.0,416.0,0,0,1,6326,4261,11.9799995422
1587292502429219608,27882,1587292502436643995,,2,135.0,0.0,481.0,0,0,1,6325,4261,11.970000267
1587292502472145389,27883,1587292502469643995,,2,137.0,0.0,511.0,0,0,1,6325,4261,11.9799995422
1587292502524832628,27884,1587292502504643995,,2,137.0,0.0,443.0,0,0,1,6325,4261,12.0
1587292502536107368,27885,1587292502538643995,,2,136.0,0.0,408.0,0,0,1,6325,4261,11.970000267
1587292502582973826,27886,1587292502573643995,,2,125.0,0.0,397.0,0,0,1,6325,4261,11.9799995422
1587292502617851691,27887,1587292502606643995,,2,153.0,0.0,377.0,0,0,1,6325,4261,11.9799995422
1587292502633951951,27888,1587292502645643995,,2,138.0,0.0,382.0,0,0,1,6325,4261,11.9799995422
1587292502676181691,27889,1587292502678643995,,2,135.0,0.0,380.0,0,0,1,6325,4261,11.9799995422
1587292502720285910,27890,1587292502713643995,,2,116.0,0.0,411.0,0,0,1,6325,4261,11.9799995422
1587292502739264608,27891,1587292502746643995,,2,117.0,0.0,418.0,0,0,1,6325,4261,11.9799995422
1587292502779340649,27892,1587292502781643995,,2,136.0,0.0,421.0,0,0,1,6325,4261,11.9799995422
1587292502817257628,27893,1587292502814643995,,2,138.0,0.0,478.0,0,0,1,6325,4261,11.9799995422
1587292502839677576,27894,1587292502850643995,,2,117.0,0.0,423.0,0,0,1,6326,4261,11.9799995422
1587292502882423514,27895,1587292502883643995,,2,117.0,0.0,414.0,0,0,1,6325,4261,11.970000267
1587292502928883878,27896,1587292502918643995,,2,136.0,0.0,480.0,0,0,1,6325,4261,11.9799995422
1587292502949204191,27897,1587292502953643995,,2,117.0,0.0,445.0,0,0,1,6325,4261,12.0
1587292502989097524,27898,1587292502978076112,,2,137.0,0.0,434.0,0,0,1,6325,4261,11.9799995422
1587292503028034920,27899,1587292503011076112,,2,135.0,0.0,408.0,0,0,1,6325,4261,11.9799995422
1587292503048701691,27900,1587292503045076112,,2,117.0,0.0,404.0,0,0,1,6325,4261,11.9799995422
1587292503091755545,27901,1587292503078076112,,2,136.0,0.0,467.0,0,0,1,6325,4261,12.0
1587292503113514816,27902,1587292503113076112,,2,137.0,0.0,434.0,0,0,1,6325,4261,11.9799995422
1587292503156291639,27903,1587292503146076112,,2,117.0,0.0,478.0,0,0,1,6325,4261,11.9799995422
1587292503184322472,27904,1587292503180076112,,2,135.0,0.0,425.0,0,0,1,6325,4261,11.970000267
1587292503225494295,27905,1587292503215076112,,2,135.0,0.0,394.0,0,0,1,6325,4261,11.970000267
1587292503260396534,27906,1587292503248076112,,2,138.0,0.0,380.0,0,0,1,6326,4261,11.970000267
1587292503288875076,27907,1587292503283076112,,2,116.0,0.0,382.0,0,0,1,6325,4261,11.9799995422
1587292503329181170,27908,1587292503316076112,,2,136.0,0.0,381.0,0,0,1,6325,4261,11.9799995422
1587292503377164659,27909,1587292503351076112,,2,116.0,0.0,401.0,0,0,1,6325,4261,11.9799995422
1587292503390012941,27910,1587292503385076112,,2,116.0,0.0,382.0,0,0,1,6325,4261,11.9799995422
1587292503432529295,27911,1587292503418076112,,2,135.0,0.0,464.0,0,0,1,6325,4261,11.9799995422
1587292503471809972,27912,1587292503467076112,,2,137.0,0.0,428.0,0,0,1,6325,4261,11.9799995422
1587292503518036378,27913,1587292503500076112,,2,137.0,0.0,419.0,0,0,1,6325,4261,11.9499998093
1587292503535392316,27914,1587292503535076112,,2,136.0,0.0,393.0,0,0,1,6325,4261,11.970000267
1587292503576264295,27915,1587292503568076112,,2,136.0,0.0,471.0,0,0,1,6325,4261,11.970000267
1587292503618119243,27916,1587292503601076112,,2,116.0,0.0,416.0,0,0,1,6325,4261,11.970000267
1587292503641739763,27917,1587292503636076112,,2,135.0,0.0,494.0,0,0,1,6325,4261,11.9799995422
1587292503679759190,27918,1587292503668076112,,2,137.0,0.0,419.0,0,0,1,6325,4261,11.9799995422
1587292503723800232,27919,1587292503701076112,,2,117.0,0.0,415.0,0,0,1,6325,4261,11.9799995422
1587292503745932732,27920,1587292503735076112,,2,81.0,0.0,418.0,0,0,1,6325,4261,11.970000267
1587292503787269607,27921,1587292503770076112,,2,135.0,0.0,390.0,0,0,1,6325,4261,11.9799995422
1587292503805172680,27922,1587292503805076112,,2,136.0,0.0,400.0,0,0,1,6325,4261,11.9799995422
1587292503846506274,27923,1587292503838076112,,2,137.0,0.0,387.0,0,0,1,6325,4261,11.9799995422
1587292503892100805,27924,1587292503873076112,,2,135.0,0.0,402.0,0,0,1,6325,4261,11.9799995422
1587292503905775597,27925,1587292503906076112,,2,116.0,0.0,480.0,0,0,1,6325,4261,11.9799995422
1587292503949959659,27926,1587292503939076112,,2,81.0,0.0,434.0,0,0,1,6325,4261,11.9799995422
1587292503994577836,27927,1587292503974076112,,2,117.0,0.0,494.0,0,0,1,6325,4261,11.9799995422
1587292504007467472,27928,1587292504008076112,,2,81.0,0.0,449.0,0,0,1,6328,4261,11.9799995422
1587292504054278045,27929,1587292504041076112,,2,137.0,0.0,409.0,0,0,1,6341,4261,11.970000267
1587292504095367680,27930,1587292504076076112,,2,141.0,0.0,417.0,0,0,1,6361,4272,11.970000267
1587292504112043565,27931,1587292504111076112,,2,136.0,0.0,393.0,0,0,1,6388,4295,11.970000267
1587292504154986430,27932,1587292504144076112,,2,117.0,0.0,470.0,0,0,1,6417,4320,11.9799995422
1587292504200726690,27933,1587292504179076112,,2,118.0,0.0,444.0,0,0,1,6451,4349,11.9799995422
1587292504219246794,27934,1587292504214076112,,2,80.0,0.0,431.0,0,0,1,6485,4380,11.9799995422
1587292504259822680,27935,1587292504246076112,,2,117.0,0.0,486.0,0,0,1,6516,4410,11.970000267
1587292504300376690,27936,1587292504288076112,,2,81.0,0.0,429.0,0,0,1,6556,4451,11.970000267
1587292504343322992,27937,1587292504321076112,,2,135.0,0.0,401.0,0,0,1,6589,4484,11.970000267
1587292504361728513,27938,1587292504355076112,,2,137.0,0.0,390.0,0,0,1,6624,4519,11.970000267
1587292504400729503,27939,1587292504388076112,,2,136.0,0.0,378.0,0,0,1,6656,4552,11.970000267
1587292504424179138,27940,1587292504423076112,,2,130.0,0.0,404.0,0,0,1,6690,4587,11.9799995422
1587292504466106169,27941,1587292504456076112,,2,117.0,0.0,469.0,0,0,1,6722,4620,11.9799995422
1587292504511338826,27942,1587292504491076112,,2,80.0,0.0,421.0,0,0,1,6756,4656,11.970000267
1587292504530234034,27943,1587292504526076112,,2,135.0,0.0,398.0,0,0,1,6789,4689,11.9799995422
1587292504572666586,27944,1587292504561076112,,2,142.0,0.0,378.0,0,0,1,6825,4724,11.970000267
1587292504608251742,27945,1587292504594076112,,2,117.0,0.0,462.0,0,0,1,6858,4758,11.9300003052
1587292504642088826,27946,1587292504629076112,,2,118.0,0.0,413.0,0,0,1,6894,4793,11.970000267
1587292504682351690,27947,1587292504664076112,,2,167.0,0.0,396.0,0,0,1,6928,4829,11.970000267
1587292504720362315,27948,1587292504697076112,,2,117.0,0.0,474.0,0,0,1,6960,4863,11.9799995422
1587292504737829763,27949,1587292504730076112,,2,136.0,0.0,510.0,0,0,1,6993,4897,11.9799995422
1587292504781532992,27950,1587292504763076112,,2,136.0,0.0,532.0,0,0,1,7023,4928,11.970000267
1587292504798764294,27951,1587292504799076112,,2,117.0,0.0,471.0,0,0,1,7058,4963,11.970000267
1587292504840491794,27952,1587292504832076112,,2,117.0,0.0,446.0,0,0,1,7090,4996,11.970000267
1587292504887357992,27953,1587292504867076112,,2,119.0,0.0,414.0,0,0,1,7125,5033,11.970000267
1587292504907175648,27954,1587292504901076112,,2,80.0,0.0,419.0,0,0,1,7160,5065,11.970000267
1587292504950058357,27955,1587292504934076112,,2,136.0,0.0,413.0,0,0,1,7192,5099,11.970000267
1587292504988900752,27956,1587292504974076112,,2,117.0,0.0,429.0,0,0,1,7230,5140,11.9799995422
1587292505028803096,27957,1587292505007076112,,2,82.0,0.0,399.0,0,0,1,7262,5173,11.970000267
1587292505055902680,27958,1587292505041076112,,2,136.0,0.0,395.0,0,0,1,7297,5206,11.970000267
1587292505095517732,27959,1587292505076076112,,2,81.0,0.0,459.0,0,0,1,7334,5242,11.9499998093
1587292505112962888,27960,1587292505113076112,,2,135.0,0.0,408.0,0,0,1,7370,5278,11.970000267
1587292505156440909,27961,1587292505146076112,,2,80.0,0.0,392.0,0,0,1,7402,5312,11.970000267
1587292505202631117,27962,1587292505181076112,,2,116.0,0.0,378.0,0,0,1,7439,5349,11.9799995422
1587292505220464086,27963,1587292505214076112,,2,117.0,0.0,374.0,0,0,1,7473,5382,11.9499998093
1587292505266148982,27964,1587292505249076112,,2,117.0,0.0,377.0,0,0,1,7506,5418,11.9799995422
1587292505302733669,27965,1587292505282076112,,2,81.0,0.0,465.0,0,0,1,7539,5451,11.970000267
1587292505327527784,27966,1587292505320076112,,2,135.0,0.0,409.0,0,0,1,7577,5487,11.970000267
1587292505371185440,27967,1587292505353076112,,2,136.0,0.0,419.0,0,0,1,7610,5518,11.970000267
1587292505393439086,27968,1587292505393076112,,2,81.0,0.0,490.0,0,0,1,7651,5558,11.970000267
1587292505432937523,27969,1587292505426076112,,2,136.0,0.0,433.0,0,0,1,7683,5591,11.970000267
1587292505477115179,27970,1587292505459076112,,2,81.0,0.0,419.0,0,0,1,7715,5626,11.970000267
1587292505499515544,27971,1587292505494076112,,2,123.0,0.0,422.0,0,0,1,7751,5659,11.970000267
1587292505542612731,27972,1587292505546363937,,2,136.0,0.0,414.0,0,0,1,7786,5694,11.970000267
1587292505579123565,27973,1587292505579363937,,2,136.0,0.0,393.0,0,0,1,7818,5725,11.970000267
1587292505602837106,27974,1587292505620363937,,2,116.0,0.0,389.0,0,0,1,7857,5767,11.970000267
1587292505641841950,27975,1587292505653363937,,2,116.0,0.0,463.0,0,0,1,7892,5799,11.970000267
1587292505684743304,27976,1587292505686363937,,2,136.0,0.0,422.0,0,0,1,7924,5833,11.970000267
1587292505702140908,27977,1587292505719363937,,2,140.0,0.0,382.0,0,0,1,7956,5866,11.9499998093
1587292505746779502,27978,1587292505752363937,,2,81.0,0.0,373.0,0,0,1,7988,5900,11.970000267
1587292505788348408,27979,1587292505785363937,,2,137.0,0.0,459.0,0,0,1,8022,5931,11.970000267
1587292505808010752,27980,1587292505823363937,,2,80.0,0.0,437.0,0,0,1,8058,5968,11.970000267
1587292505849862471,27981,1587292505856363937,,2,136.0,0.0,494.0,0,0,1,8090,6000,11.970000267
1587292505895539450,27982,1587292505889363937,,2,128.0,0.0,451.0,0,0,1,8124,6033,11.970000267
1587292505913092992,27983,1587292505925363937,,2,81.0,0.0,448.0,0,0,1,8160,6067,11.970000267
1587292505954367992,27984,1587292505958363937,,2,117.0,0.0,480.0,0,0,1,8193,6100,11.9799995422
1587292505996480440,27985,1587292505999363937,,2,135.0,0.0,425.0,0,0,1,8233,6141,11.9499998093
1587292506042005388,27986,1587292506032363937,,2,116.0,0.0,486.0,0,0,1,8267,6175,11.970000267
1587292506060066221,27987,1587292506069363937,,2,134.0,0.0,426.0,0,0,1,8302,6212,11.970000267
1587292506105537887,27988,1587292506102363937,,2,81.0,0.0,420.0,0,0,1,8334,6241,11.970000267
1587292506127888877,27989,1587292506145363937,,2,80.0,0.0,404.0,0,0,1,8379,6285,11.970000267
1587292506173081585,27990,1587292506178363937,,2,137.0,0.0,472.0,0,0,1,8413,6319,11.9799995422
1587292506213454085,27991,1587292506211363937,,2,117.0,0.0,451.0,0,0,1,8448,6351,11.970000267
1587292506233315127,27992,1587292506248363937,,2,117.0,0.0,417.0,0,0,1,8484,6387,11.970000267
1587292506276961012,27993,1587292506281363937,,2,136.0,0.0,384.0,0,0,1,8516,6418,11.9499998093
1587292506318625908,27994,1587292506314363937,,2,81.0,0.0,369.0,0,0,1,8548,6451,11.970000267
1587292506337057575,27995,1587292506349363937,,2,137.0,0.0,370.0,0,0,1,8585,6484,11.970000267
1587292506381335908,27996,1587292506382363937,,2,80.0,0.0,368.0,0,0,1,8616,6515,11.9799995422
1587292506414213564,27997,1587292506433363937,,2,117.0,0.0,410.0,0,0,1,8666,6564,11.970000267
1587292506456628929,27998,1587292506466363937,,2,81.0,0.0,414.0,0,0,1,8700,6599,11.970000267
1587292506504909606,27999,1587292506501363937,,2,137.0,0.0,495.0,0,0,1,8736,6633,11.970000267
1587292506524837471,28000,1587292506535363937,,2,80.0,0.0,426.0,0,0,1,8767,6666,11.9799995422
1587292506564058721,28001,1587292506568363937,,2,137.0,0.0,397.0,0,0,1,8799,6700,11.970000267
1587292506601574814,28002,1587292506615363937,,2,126.0,0.0,487.0,0,0,1,8846,6746,11.9799995422
1587292506646796429,28003,1587292506648363937,,2,80.0,0.0,452.0,0,0,1,8880,6778,11.970000267
1587292506688548044,28004,1587292506681363937,,2,117.0,0.0,429.0,0,0,1,8913,6809,11.9799995422
1587292506708146221,28005,1587292506718363937,,2,117.0,0.0,408.0,0,0,1,8949,6846,11.970000267
1587292506748640127,28006,1587292506751363937,,2,137.0,0.0,385.0,0,0,1,8981,6880,11.970000267
1587292506769315856,28007,1587292506788363937,,2,117.0,0.0,466.0,0,0,1,9018,6915,11.970000267
1587292506816153408,28008,1587292506821363937,,2,138.0,0.0,420.0,0,0,1,9051,6948,11.970000267
1587292506861756273,28009,1587292506856363937,,2,118.0,0.0,421.0,0,0,1,9084,6982,11.970000267
1587292506875808408,28010,1587292506890363937,,2,138.0,0.0,481.0,0,0,1,9116,7015,11.970000267
1587292506919095491,28011,1587292506923363937,,2,117.0,0.0,421.0,0,0,1,9150,7048,11.970000267
1587292506964862314,28012,1587292506958363937,,2,127.0,0.0,424.0,0,0,1,9185,7081,11.970000267
1587292506976987418,28013,1587292506992363937,,2,117.0,0.0,398.0,0,0,1,9219,7115,11.9799995422
1587292507020650543,28014,1587292507025363937,,2,122.0,0.0,384.0,0,0,1,9251,7149,11.9799995422
1587292507060617470,28015,1587292507058363937,,2,118.0,0.0,375.0,0,0,1,9283,7181,11.970000267
1587292507078292627,28016,1587292507094363937,,2,138.0,0.0,377.0,0,0,1,9319,7216,11.9799995422
1587292507120352418,28017,1587292507127363937,,2,80.0,0.0,397.0,0,0,1,9350,7247,11.970000267
1587292507163853304,28018,1587292507172363937,,2,136.0,0.0,396.0,0,0,1,9397,7292,11.970000267
1587292507204347262,28019,1587292507205363937,,2,81.0,0.0,404.0,0,0,1,9431,7325,11.970000267
1587292507225692627,28020,1587292507238363937,,2,139.0,0.0,392.0,0,0,1,9464,7356,11.9799995422
1587292507263731585,28021,1587292507271363937,,2,119.0,0.0,404.0,0,0,1,9497,7390,11.9499998093
1587292507313240127,28022,1587292507306363937,,2,136.0,0.0,474.0,0,0,1,9532,7424,11.970000267
1587292507329523564,28023,1587292507339363937,,2,138.0,0.0,517.0,0,0,1,9565,7457,11.970000267
1587292507371318877,28024,1587292507374363937,,2,137.0,0.0,441.0,0,0,1,9599,7491,11.970000267
1587292507404216949,28025,1587292507422363937,,2,137.0,0.0,413.0,0,0,1,9646,7537,11.9799995422
1587292507446463043,28026,1587292507455363937,,2,117.0,0.0,481.0,0,0,1,9680,7570,11.970000267
1587292507485514710,28027,1587292507488363937,,2,119.0,0.0,418.0,0,0,1,9713,7602,11.970000267
1587292507511696168,28028,1587292507523363937,,2,118.0,0.0,418.0,0,0,1,9748,7637,11.970000267
1587292507551170647,28029,1587292507558363937,,2,118.0,0.0,392.0,0,0,1,9780,7673,11.970000267
1587292507590521741,28030,1587292507591363937,,2,138.0,0.0,379.0,0,0,1,9814,7705,11.970000267
1587292507608695179,28031,1587292507624363937,,2,139.0,0.0,399.0,0,0,1,9848,7739,11.9499998093
1587292507653375491,28032,1587292507657363937,,2,118.0,0.0,386.0,0,0,1,9880,7770,11.970000267
1587292507692186168,28033,1587292507690363937,,2,81.0,0.0,395.0,0,0,1,9912,7802,11.970000267
1587292507711730543,28034,1587292507724363937,,2,81.0,0.0,472.0,0,0,1,9947,7836,11.970000267
1587292507753765543,28035,1587292507757363937,,2,137.0,0.0,421.0,0,0,1,9979,7871,11.9499998093
1587292507789131741,28036,1587292507805363937,,2,120.0,0.0,499.0,0,0,1,10028,7918,11.970000267
1587292507831166585,28037,1587292507838363937,,2,136.0,0.0,443.0,0,0,1,10060,7951,11.970000267
1587292507872687731,28038,1587292507871363937,,2,81.0,0.0,496.0,0,0,1,10091,7985,11.970000267
1587292507889643824,28039,1587292507904363937,,2,117.0,0.0,457.0,0,0,1,10123,8017,11.970000267
1587292507932717158,28040,1587292507937363937,,2,80.0,0.0,413.0,0,0,1,10157,8049,11.970000267
1587292507965634137,28041,1587292507983363937,,2,81.0,0.0,409.0,0,0,1,10203,8095,11.9799995422
1587292508008532783,28042,1587292507994172103,,2,117.0,0.0,395.0,0,0,1,10237,8130,11.970000267
1587292508051480387,28043,1587292508027172103,,2,165.0,0.0,469.0,0,0,1,10270,8164,11.970000267
1587292508069449762,28044,1587292508064172103,,2,136.0,0.0,443.0,0,0,1,10306,8200,11.9799995422
1587292508118844345,28045,1587292508097172103,,2,138.0,0.0,411.0,0,0,1,10338,8234,11.970000267
1587292508157401168,28046,1587292508130172103,,2,139.0,0.0,394.0,0,0,1,10370,8265,11.9799995422
1587292508175973772,28047,1587292508170172103,,2,137.0,0.0,388.0,0,0,1,10411,8304,11.970000267
1587292508222757366,28048,1587292508203172103,,2,139.0,0.0,408.0,0,0,1,10444,8336,11.9799995422
1587292508268352470,28049,1587292508236172103,,2,118.0,0.0,481.0,0,0,1,10476,8370,11.9499998093
1587292508287758668,28050,1587292508275172103,,2,121.0,0.0,441.0,0,0,1,10515,8410,11.9499998093
1587292508328320491,28051,1587292508308172103,,2,80.0,0.0,412.0,0,0,1,10547,8441,11.9499998093
1587292508361878355,28052,1587292508348172103,,2,118.0,0.0,410.0,0,0,1,10587,8482,11.970000267
1587292508401250595,28053,1587292508381172103,,2,139.0,0.0,413.0,0,0,1,10619,8513,11.970000267
1587292508423293720,28054,1587292508416172103,,2,80.0,0.0,415.0,0,0,1,10652,8547,11.970000267
1587292508467161376,28055,1587292508448172103,,2,118.0,0.0,398.0,0,0,1,10686,8581,11.9799995422
1587292508488078407,28056,1587292508481172103,,2,119.0,0.0,474.0,0,0,1,10720,8614,11.9799995422
1587292508527679970,28057,1587292508514172103,,2,80.0,0.0,433.0,0,0,1,10751,8647,11.9799995422
1587292508572142782,28058,1587292508547172103,,2,139.0,0.0,495.0,0,0,1,10783,8681,11.970000267
1587292508588913824,28059,1587292508581172103,,2,117.0,0.0,431.0,0,0,1,10816,8716,11.970000267
1587292508631612678,28060,1587292508614172103,,2,117.0,0.0,402.0,0,0,1,10849,8748,11.9799995422
1587292508669544605,28061,1587292508661172103,,2,117.0,0.0,491.0,0,0,1,10894,8794,11.970000267
1587292508711337105,28062,1587292508694172103,,2,139.0,0.0,427.0,0,0,1,10926,8827,11.970000267
1587292508757523668,28063,1587292508729172103,,2,137.0,0.0,402.0,0,0,1,10962,8863,11.970000267
1587292508775612939,28064,1587292508762172103,,2,137.0,0.0,479.0,0,0,1,10996,8896,11.970000267
1587292508815839709,28065,1587292508797172103,,2,139.0,0.0,429.0,0,0,1,11029,8932,11.970000267
1587292508854938095,28066,1587292508830172103,,2,80.0,0.0,397.0,0,0,1,11061,8964,11.970000267
1587292508870798928,28067,1587292508866172103,,2,134.0,0.0,387.0,0,0,1,11097,9002,11.9799995422
1587292508911870491,28068,1587292508899172103,,2,137.0,0.0,376.0,0,0,1,11129,9032,11.970000267
1587292508960468824,28069,1587292508934172103,,2,81.0,0.0,381.0,0,0,1,11163,9067,11.970000267
1587292508980650647,28070,1587292508968172103,,2,140.0,0.0,371.0,0,0,1,11196,9100,11.970000267
1587292509021497261,28071,1587292509003172103,,2,117.0,0.0,371.0,0,0,1,11231,9137,11.970000267
1587292509060221636,28072,1587292509036172103,,2,80.0,0.0,456.0,0,0,1,11265,9169,11.9499998093
1587292509076858355,28073,1587292509072172103,,2,81.0,0.0,438.0,0,0,1,11301,9207,11.970000267
1587292509123229813,28074,1587292509105172103,,2,138.0,0.0,428.0,0,0,1,11332,9240,11.970000267
1587292509166119345,28075,1587292509153172103,,2,119.0,0.0,495.0,0,0,1,11380,9290,11.9099998474
1587292509208732209,28076,1587292509186172103,,2,138.0,0.0,517.0,0,0,1,11413,9323,11.9799995422
1587292509225012678,28077,1587292509222172103,,2,81.0,0.0,465.0,0,0,1,11450,9357,11.9499998093
1587292509270392001,28078,1587292509255172103,,2,137.0,0.0,417.0,0,0,1,11482,9390,11.970000267
1587292509309899240,28079,1587292509288172103,,2,137.0,0.0,484.0,0,0,1,11515,9425,11.970000267
1587292509334637574,28080,1587292509322172103,,2,80.0,0.0,445.0,0,0,1,11551,9461,11.9499998093
1587292509376536480,28081,1587292509355172103,,2,139.0,0.0,418.0,0,0,1,11585,9492,11.970000267
1587292509400003615,28082,1587292509392172103,,2,138.0,0.0,421.0,0,0,1,11622,9530,11.970000267
1587292509439634813,28083,1587292509425172103,,2,118.0,0.0,392.0,0,0,1,11654,9563,11.970000267
1587292509467515230,28084,1587292509460172103,,2,117.0,0.0,382.0,0,0,1,11689,9596,11.970000267
1587292509507493042,28085,1587292509495172103,,2,162.0,0.0,381.0,0,0,1,11724,9631,11.970000267
1587292509545286532,28086,1587292509528172103,,2,137.0,0.0,376.0,0,0,1,11758,9665,11.970000267
1587292509589190855,28087,1587292509561172103,,2,145.0,0.0,379.0,0,0,1,11790,9698,11.970000267
1587292509612299292,28088,1587292509596172103,,2,143.0,0.0,383.0,0,0,1,11825,9733,11.970000267
1587292509652848667,28089,1587292509631172103,,2,151.0,0.0,464.0,0,0,1,11859,9768,11.970000267
1587292509676662626,28090,1587292509668172103,,2,80.0,0.0,423.0,0,0,1,11895,9803,11.970000267
1587292509717718042,28091,1587292509701172103,,2,136.0,0.0,399.0,0,0,1,11926,9836,11.970000267
1587292509740082886,28092,1587292509734172103,,2,117.0,0.0,383.0,0,0,1,11960,9868,11.970000267
1587292509783132990,28093,1587292509767172103,,2,81.0,0.0,468.0,0,0,1,11993,9900,11.970000267
1587292509825205334,28094,1587292509800172103,,2,138.0,0.0,443.0,0,0,1,12024,9933,11.970000267
1587292509841968615,28095,1587292509834172103,,2,138.0,0.0,496.0,0,0,1,12059,9967,11.9499998093
1587292509884637730,28096,1587292509867172103,,2,137.0,0.0,520.0,0,0,1,12090,10001,11.970000267
1587292509919582001,28097,1587292509914172103,,2,138.0,0.0,449.0,0,0,1,12137,10046,11.9799995422
1587292509961441636,28098,1587292509947172103,,2,138.0,0.0,439.0,0,0,1,12168,10078,11.970000267
1587292510001533355,28099,1587292509980172103,,2,80.0,0.0,427.0,0,0,1,12201,10110,11.970000267
1587292510025532521,28100,1587292510014172103,,2,141.0,0.0,398.0,0,0,1,12235,10144,11.9799995422
1587292510068742938,28101,1587292510047172103,,2,117.0,0.0,410.0,0,0,1,12269,10176,11.9499998093
1587292510090796948,28102,1587292510083172103,,2,138.0,0.0,400.0,0,0,1,12304,10213,11.9799995422
1587292510132595542,28103,1587292510116172103,,2,81.0,0.0,412.0,0,0,1,12337,10245,11.9499998093
1587292510155157053,28104,1587292510150172103,,2,117.0,0.0,483.0,0,0,1,12370,10280,11.970000267
1587292510196752886,28105,1587292510183172103,,2,81.0,0.0,416.0,0,0,1,12404,10311,11.970000267
1587292510237562730,28106,1587292510216172103,,2,136.0,0.0,389.0,0,0,1,12436,10342,11.970000267
1587292510255489500,28107,1587292510250172103,,2,136.0,0.0,408.0,0,0,1,12471,10375,11.9499998093
1587292510303490594,28108,1587292510283172103,,2,138.0,0.0,472.0,0,0,1,12504,10409,11.970000267
1587292510342891688,28109,1587292510316172103,,2,81.0,0.0,418.0,0,0,1,12540,10443,11.970000267
1587292510361907782,28110,1587292510352172103,,2,137.0,0.0,424.0,0,0,1,12575,10478,11.9799995422
1587292510402403615,28111,1587292510385172103,,2,135.0,0.0,390.0,0,0,1,12607,10511,11.9499998093
1587292510436252209,28112,1587292510431172103,,2,118.0,0.0,477.0,0,0,1,12653,10556,11.9799995422
1587292510479613250,28113,1587292510464172103,,2,139.0,0.0,427.0,0,0,1,12686,10588,11.970000267
1587292510522044344,28114,1587292510497172103,,2,117.0,0.0,484.0,0,0,1,12718,10619,11.970000267
1587292510539565334,28115,1587292510541812030,,2,138.0,0.0,438.0,0,0,1,12752,10653,11.9499998093
1587292510588245802,28116,1587292510574812030,,2,81.0,0.0,405.0,0,0,1,12785,10684,11.970000267
1587292510620044292,28117,1587292510627812030,,2,117.0,0.0,437.0,0,0,1,12837,10737,11.9499998093
1587292510665296167,28118,1587292510660812030,,2,81.0,0.0,406.0,0,0,1,12869,10769,11.9799995422
1587292510719886427,28119,1587292510695812030,,2,117.0,0.0,394.0,0,0,1,12904,10804,11.970000267
1587292510738316792,28120,1587292510730812030,,2,80.0,0.0,473.0,0,0,1,12938,10838,11.9799995422
1587292510778769292,28121,1587292510763812030,,2,80.0,0.0,418.0,0,0,1,12972,10869,11.970000267
1587292510808376688,28122,1587292510817812030,,2,137.0,0.0,500.0,0,0,1,13024,10922,11.970000267
1587292510848954032,28123,1587292510850812030,,2,137.0,0.0,522.0,0,0,1,13056,10955,11.970000267
1587292510891322625,28124,1587292510883812030,,2,81.0,0.0,449.0,0,0,1,13089,10988,11.970000267
1587292510940977938,28125,1587292510918812030,,2,135.0,0.0,494.0,0,0,1,13123,11022,11.970000267
1587292510957217521,28126,1587292510953812030,,2,137.0,0.0,438.0,0,0,1,13155,11057,11.9799995422
1587292511002635490,28127,1587292510988812030,,2,118.0,0.0,410.0,0,0,1,13190,11091,11.970000267
1587292511032961584,28128,1587292511035812030,,2,135.0,0.0,427.0,0,0,1,13238,11137,11.9499998093
1587292511076462000,28129,1587292511068812030,,2,118.0,0.0,413.0,0,0,1,13270,11169,11.9799995422
1587292511123484865,28130,1587292511103812030,,2,118.0,0.0,389.0,0,0,1,13306,11203,11.9499998093
1587292511138044604,28131,1587292511138812030,,2,80.0,0.0,384.0,0,0,1,13340,11238,11.9499998093
1587292511180707000,28132,1587292511171812030,,2,137.0,0.0,418.0,0,0,1,13373,11271,11.9499998093
1587292511231879656,28133,1587292511206812030,,2,139.0,0.0,477.0,0,0,1,13408,11304,11.970000267
1587292511245345073,28134,1587292511242812030,,2,80.0,0.0,432.0,0,0,1,13442,11339,11.9499998093
1587292511287696531,28135,1587292511275812030,,2,80.0,0.0,409.0,0,0,1,13475,11372,11.970000267
1587292511315738875,28136,1587292511315812030,,2,118.0,0.0,392.0,0,0,1,13518,11412,11.9499998093
1587292511358507990,28137,1587292511348812030,,2,137.0,0.0,394.0,0,0,1,13552,11444,11.970000267
1587292511381511635,28138,1587292511383812030,,2,117.0,0.0,382.0,0,0,1,13585,11478,11.970000267
1587292511427613458,28139,1587292511418812030,,2,80.0,0.0,381.0,0,0,1,13620,11513,11.970000267
1587292511460920646,28140,1587292511451812030,,2,139.0,0.0,471.0,0,0,1,13656,11547,11.9499998093
1587292511483504396,28141,1587292511490812030,,2,121.0,0.0,507.0,0,0,1,13694,11585,11.970000267
1587292511526685594,28142,1587292511523812030,,2,117.0,0.0,531.0,0,0,1,13726,11616,11.970000267
1587292511569943979,28143,1587292511556812030,,2,137.0,0.0,446.0,0,0,1,13759,11648,11.9799995422
1587292511587914135,28144,1587292511592812030,,2,117.0,0.0,442.0,0,0,1,13796,11684,11.9499998093
1587292511631958771,28145,1587292511625812030,,2,81.0,0.0,407.0,0,0,1,13829,11717,11.970000267
1587292511672714969,28146,1587292511658812030,,2,160.0,0.0,394.0,0,0,1,13859,11749,11.9499998093
1587292511695585073,28147,1587292511695812030,,2,138.0,0.0,384.0,0,0,1,13895,11787,11.9799995422
1587292511739099292,28148,1587292511728812030,,2,81.0,0.0,410.0,0,0,1,13928,11821,11.970000267
1587292511762093198,28149,1587292511767812030,,2,117.0,0.0,400.0,0,0,1,13968,11858,11.970000267
1587292511804300073,28150,1587292511800812030,,2,138.0,0.0,407.0,0,0,1,14001,11891,11.970000267
1587292511845509760,28151,1587292511833812030,,2,117.0,0.0,413.0,0,0,1,14034,11923,11.970000267
1587292511868316739,28152,1587292511867812030,,2,136.0,0.0,396.0,0,0,1,14066,11960,11.970000267
1587292511910361271,28153,1587292511902812030,,2,117.0,0.0,399.0,0,0,1,14103,11996,11.970000267
1587292511946036687,28154,1587292511935812030,,2,137.0,0.0,379.0,0,0,1,14136,12028,11.970000267
1587292511964780125,28155,1587292511970812030,,2,118.0,0.0,402.0,0,0,1,14171,12063,11.970000267
1587292512007798094,28156,1587292512003812030,,2,139.0,0.0,389.0,0,0,1,14202,12096,11.970000267
1587292512047906166,28157,1587292512036812030,,2,136.0,0.0,465.0,0,0,1,14234,12127,11.970000267
1587292512068941219,28158,1587292512071812030,,2,137.0,0.0,414.0,0,0,1,14269,12162,11.970000267
1587292512113992104,28159,1587292512104812030,,2,117.0,0.0,393.0,0,0,1,14302,12195,11.970000267
1587292512152771010,28160,1587292512137812030,,2,116.0,0.0,382.0,0,0,1,14335,12229,11.970000267
1587292512169138198,28161,1587292512172812030,,2,136.0,0.0,381.0,0,0,1,14370,12264,11.970000267
1587292512212208979,28162,1587292512205812030,,2,116.0,0.0,379.0,0,0,1,14402,12296,11.970000267
1587292512251649396,28163,1587292512252812030,,2,120.0,0.0,395.0,0,0,1,14448,12343,11.970000267
1587292512293736843,28164,1587292512285812030,,2,136.0,0.0,479.0,0,0,1,14480,12376,11.970000267
1587292512316766896,28165,1587292512322812030,,2,81.0,0.0,415.0,0,0,1,14519,12412,11.9499998093
1587292512360283562,28166,1587292512355812030,,2,80.0,0.0,396.0,0,0,1,14551,12444,11.970000267
1587292512401473145,28167,1587292512388812030,,2,140.0,0.0,402.0,0,0,1,14584,12478,11.9799995422
1587292512420332885,28168,1587292512423812030,,2,136.0,0.0,410.0,0,0,1,14620,12514,11.970000267
1587292512465106843,28169,1587292512456812030,,2,117.0,0.0,391.0,0,0,1,14653,12546,11.970000267
1587292512507518093,28170,1587292512489812030,,2,135.0,0.0,377.0,0,0,1,14685,12578,11.970000267
1587292512525761375,28171,1587292512527812030,,2,116.0,0.0,379.0,0,0,1,14721,12616,11.9499998093
1587292512568843302,28172,1587292512560812030,,2,135.0,0.0,379.0,0,0,1,14753,12649,11.970000267
1587292512610397416,28173,1587292512609812030,,2,116.0,0.0,425.0,0,0,1,14803,12696,11.9799995422
1587292512650681114,28174,1587292512642812030,,2,116.0,0.0,396.0,0,0,1,14835,12729,11.9499998093
1587292512668769291,28175,1587292512675812030,,2,136.0,0.0,378.0,0,0,1,14867,12763,11.970000267
1587292512709298770,28176,1587292512708812030,,2,136.0,0.0,386.0,0,0,1,14899,12796,11.970000267
1587292512752386739,28177,1587292512741812030,,2,117.0,0.0,363.0,0,0,1,14934,12828,11.970000267
1587292512775412000,28178,1587292512776812030,,2,136.0,0.0,454.0,0,0,1,14968,12864,11.970000267
1587292512815709500,28179,1587292512809812030,,2,81.0,0.0,429.0,0,0,1,14999,12895,11.970000267
1587292512837791999,28180,1587292512843812030,,2,134.0,0.0,487.0,0,0,1,15033,12930,11.970000267
1587292512880684916,28181,1587292512876812030,,2,157.0,0.0,424.0,0,0,1,15066,12964,11.9499998093
1587292512925966322,28182,1587292512911812030,,2,136.0,0.0,486.0,0,0,1,15103,13000,11.970000267
1587292512937642208,28183,1587292512944812030,,2,137.0,0.0,513.0,0,0,1,15134,13035,11.970000267
1587292512984768822,28184,1587292512977812030,,2,136.0,0.0,527.0,0,0,1,15164,13067,11.970000267
1587292513028134083,28185,1587292513012812030,,2,117.0,0.0,453.0,0,0,1,15199,13103,11.970000267
1587292513041789083,28186,1587292513050016946,,2,117.0,0.0,406.0,0,0,1,15233,13137,11.9499998093
1587292513083502051,28187,1587292513083016946,,2,136.0,0.0,476.0,0,0,1,15265,13167,11.970000267
1587292513129183249,28188,1587292513118016946,,2,138.0,0.0,432.0,0,0,1,15299,13203,11.970000267
1587292513146066531,28189,1587292513153016946,,2,155.0,0.0,403.0,0,0,1,15333,13240,11.970000267
1587292513189667729,28190,1587292513186016946,,2,136.0,0.0,408.0,0,0,1,15367,13273,11.9799995422
1587292513235504812,28191,1587292513221016946,,2,137.0,0.0,396.0,0,0,1,15403,13310,11.970000267
1587292513249162208,28192,1587292513254016946,,2,136.0,0.0,411.0,0,0,1,15435,13343,11.9499998093
1587292513290769031,28193,1587292513287016946,,2,118.0,0.0,388.0,0,0,1,15467,13377,11.9799995422
1587292513332413562,28194,1587292513320016946,,2,137.0,0.0,463.0,0,0,1,15500,13410,11.970000267
1587292513349747676,28195,1587292513356016946,,2,137.0,0.0,416.0,0,0,1,15537,13446,11.9499998093
1587292513395376218,28196,1587292513389016946,,2,137.0,0.0,421.0,0,0,1,15570,13478,11.970000267
1587292513445608510,28197,1587292513422016946,,2,136.0,0.0,420.0,0,0,1,15603,13512,11.9499998093
1587292513464075489,28198,1587292513459016946,,2,81.0,0.0,394.0,0,0,1,15640,13551,11.9499998093
1587292513505580333,28199,1587292513492016946,,2,118.0,0.0,378.0,0,0,1,15673,13583,11.9499998093
1587292513546775385,28200,1587292513544016946,,2,139.0,0.0,482.0,0,0,1,15725,13636,11.970000267
1587292513589862937,28201,1587292513577016946,,2,81.0,0.0,446.0,0,0,1,15757,13667,11.970000267
1587292513608683874,28202,1587292513611016946,,2,136.0,0.0,433.0,0,0,1,15792,13700,11.970000267
1587292513652916947,28203,1587292513644016946,,2,139.0,0.0,404.0,0,0,1,15824,13733,11.970000267
1587292513687038458,28204,1587292513683016946,,2,117.0,0.0,416.0,0,0,1,15864,13772,11.9499998093
1587292513730036322,28205,1587292513716016946,,2,138.0,0.0,393.0,0,0,1,15897,13806,11.970000267
1587292513749510853,28206,1587292513756016946,,2,81.0,0.0,384.0,0,0,1,15937,13845,11.9499998093
1587292513795609343,28207,1587292513789016946,,2,117.0,0.0,417.0,0,0,1,15968,13878,11.9499998093
1587292513838336218,28208,1587292513822016946,,2,118.0,0.0,391.0,0,0,1,16000,13911,11.9499998093
1587292513857755489,28209,1587292513860016946,,2,81.0,0.0,412.0,0,0,1,16038,13949,11.9499998093
1587292513900860176,28210,1587292513893016946,,2,140.0,0.0,419.0,0,0,1,16072,13981,11.9499998093
1587292513942286114,28211,1587292513944016946,,2,138.0,0.0,435.0,0,0,1,16123,14031,11.9300003052
1587292513985876374,28212,1587292513977016946,,2,140.0,0.0,426.0,0,0,1,16155,14064,11.9499998093
1587292514009488770,28213,1587292514011016946,,2,118.0,0.0,404.0,0,0,1,16188,14098,11.970000267
1587292514048841791,28214,1587292514046016946,,2,140.0,0.0,397.0,0,0,1,16225,14132,11.9499998093
1587292514088439187,28215,1587292514079016946,,2,141.0,0.0,382.0,0,0,1,16257,14163,11.9499998093
1587292514107154759,28216,1587292514115016946,,2,138.0,0.0,380.0,0,0,1,16292,14198,11.9499998093
1587292514151414707,28217,1587292514148016946,,2,80.0,0.0,402.0,0,0,1,16325,14232,11.970000267
1587292514192372416,28218,1587292514181016946,,2,138.0,0.0,388.0,0,0,1,16359,14263,11.970000267
1587292514212627207,28219,1587292514219016946,,2,142.0,0.0,473.0,0,0,1,16396,14301,11.970000267
1587292514254765384,28220,1587292514252016946,,2,141.0,0.0,503.0,0,0,1,16428,14335,11.970000267
1587292514297040645,28221,1587292514285016946,,2,118.0,0.0,526.0,0,0,1,16461,14369,11.970000267
1587292514320241582,28222,1587292514323016946,,2,172.0,0.0,451.0,0,0,1,16499,14406,11.9499998093
1587292514362916322,28223,1587292514356016946,,2,140.0,0.0,417.0,0,0,1,16531,14437,11.970000267
1587292514385620697,28224,1587292514390016946,,2,80.0,0.0,399.0,0,0,1,16567,14470,11.970000267
1587292514427886009,28225,1587292514423016946,,2,81.0,0.0,389.0,0,0,1,16599,14503,11.970000267
1587292514450045176,28226,1587292514458016946,,2,141.0,0.0,379.0,0,0,1,16637,14539,11.9499998093
1587292514493087936,28227,1587292514491016946,,2,118.0,0.0,404.0,0,0,1,16670,14571,11.9499998093
1587292514532723666,28228,1587292514524016946,,2,119.0,0.0,385.0,0,0,1,16702,14603,11.9499998093
1587292514550346843,28229,1587292514560016946,,2,137.0,0.0,380.0,0,0,1,16738,14639,11.970000267
1587292514591069551,28230,1587292514593016946,,2,142.0,0.0,382.0,0,0,1,16770,14670,11.970000267
1587292514633038509,28231,1587292514626016946,,2,139.0,0.0,402.0,0,0,1,16803,14701,11.970000267
1587292514655510124,28232,1587292514659016946,,2,118.0,0.0,419.0,0,0,1,16835,14734,11.970000267
1587292514695728197,28233,1587292514692016946,,2,138.0,0.0,394.0,0,0,1,16869,14765,11.9499998093
1587292514722929395,28234,1587292514725016946,,2,118.0,0.0,464.0,0,0,1,16901,14799,11.970000267
1587292514763419499,28235,1587292514758016946,,2,81.0,0.0,444.0,0,0,1,16933,14831,11.9499998093
1587292514810697780,28236,1587292514793016946,,2,141.0,0.0,432.0,0,0,1,16967,14866,11.9799995422
1587292514823861790,28237,1587292514828016946,,2,81.0,0.0,426.0,0,0,1,17003,14901,11.970000267
1587292514867734707,28238,1587292514861016946,,2,140.0,0.0,402.0,0,0,1,17034,14932,11.970000267
1587292514903930176,28239,1587292514909016946,,2,142.0,0.0,484.0,0,0,1,17082,14978,11.9499998093
1587292514946550853,28240,1587292514942016946,,2,141.0,0.0,431.0,0,0,1,17116,15011,11.970000267
1587292514968965957,28241,1587292514976016946,,2,141.0,0.0,404.0,0,0,1,17148,15045,11.970000267
1587292515010654447,28242,1587292515009016946,,2,129.0,0.0,416.0,0,0,1,17181,15078,11.970000267
1587292515057374707,28243,1587292515044016946,,2,119.0,0.0,398.0,0,0,1,17215,15112,11.970000267
1587292515070979394,28244,1587292515077016946,,2,142.0,0.0,382.0,0,0,1,17246,15145,11.970000267
1587292515133607051,28245,1587292515110016946,,2,142.0,0.0,401.0,0,0,1,17277,15176,11.970000267
1587292515178476530,28246,1587292515145016946,,2,139.0,0.0,480.0,0,0,1,17313,15212,11.9499998093
1587292515196831061,28247,1587292515198016946,,2,146.0,0.0,438.0,0,0,1,17366,15264,11.970000267
1587292515240924290,28248,1587292515231016946,,2,141.0,0.0,402.0,0,0,1,17398,15295,11.9499998093
1587292515286025436,28249,1587292515264016946,,2,119.0,0.0,390.0,0,0,1,17431,15328,11.9499998093
1587292515303464186,28250,1587292515306016946,,2,119.0,0.0,388.0,0,0,1,17475,15370,11.9499998093
1587292515347914863,28251,1587292515339016946,,2,142.0,0.0,398.0,0,0,1,17507,15401,11.970000267
1587292515383728249,28252,1587292515381016946,,2,118.0,0.0,415.0,0,0,1,17547,15442,11.970000267
1587292515426044707,28253,1587292515414016946,,2,119.0,0.0,422.0,0,0,1,17581,15476,11.970000267
1587292515448930748,28254,1587292515449016946,,2,119.0,0.0,401.0,0,0,1,17617,15510,11.9499998093
1587292515497765853,28255,1587292515484016946,,2,145.0,0.0,481.0,0,0,1,17654,15544,11.9499998093
1587292515515069811,28256,1587292515520016946,,2,119.0,0.0,451.0,0,0,1,17689,15581,11.9499998093
1587292515559025384,28257,1587292515559616062,,2,118.0,0.0,406.0,0,0,1,17720,15613,11.9499998093
1587292515600378613,28258,1587292515605616062,,2,141.0,0.0,409.0,0,0,1,17768,15660,11.970000267
1587292515643165384,28259,1587292515638616062,,2,143.0,0.0,393.0,0,0,1,17800,15691,11.970000267
1587292515660216113,28260,1587292515672616062,,2,81.0,0.0,419.0,0,0,1,17834,15724,11.9300003052
1587292515703648769,28261,1587292515705616062,,2,142.0,0.0,476.0,0,0,1,17867,15757,11.9499998093
1587292515739041425,28262,1587292515752616062,,2,118.0,0.0,454.0,0,0,1,17916,15804,11.9499998093
1587292515783143821,28263,1587292515785616062,,2,81.0,0.0,410.0,0,0,1,17949,15838,11.9499998093
1587292515824464603,28264,1587292515818616062,,2,118.0,0.0,391.0,0,0,1,17979,15871,11.9499998093
1587292515846994811,28265,1587292515854616062,,2,143.0,0.0,479.0,0,0,1,18015,15908,11.970000267
1587292515887634342,28266,1587292515887616062,,2,143.0,0.0,509.0,0,0,1,18048,15940,11.9499998093
1587292515910282675,28267,1587292515924616062,,2,142.0,0.0,535.0,0,0,1,18084,15976,11.970000267
1587292515949410071,28268,1587292515957616062,,2,172.0,0.0,456.0,0,0,1,18117,16008,11.970000267
1587292515993763509,28269,1587292515990616062,,2,141.0,0.0,505.0,0,0,1,18149,16041,11.970000267
1587292516010094811,28270,1587292516025616062,,2,142.0,0.0,460.0,0,0,1,18184,16077,11.9499998093
1587292516052056634,28271,1587292516058616062,,2,142.0,0.0,443.0,0,0,1,18217,16110,11.9499998093
1587292516094415227,28272,1587292516091616062,,2,81.0,0.0,436.0,0,0,1,18248,16142,11.9499998093
1587292516111690436,28273,1587292516124616062,,2,80.0,0.0,404.0,0,0,1,18281,16175,11.9499998093
1587292516154500123,28274,1587292516157616062,,2,144.0,0.0,410.0,0,0,1,18314,16208,11.9499998093
1587292516197680696,28275,1587292516202616062,,2,141.0,0.0,409.0,0,0,1,18358,16252,11.9499998093
1587292516238091790,28276,1587292516235616062,,2,142.0,0.0,425.0,0,0,1,18391,16285,11.9499998093
1587292516256376477,28277,1587292516270616062,,2,80.0,0.0,403.0,0,0,1,18428,16322,11.9499998093
1587292516297416842,28278,1587292516303616062,,2,119.0,0.0,416.0,0,0,1,18461,16356,11.9499998093
1587292516338834081,28279,1587292516336616062,,2,143.0,0.0,477.0,0,0,1,18492,16387,11.970000267
1587292516359443144,28280,1587292516371616062,,2,119.0,0.0,519.0,0,0,1,18525,16424,11.9499998093
1587292516398658717,28281,1587292516404616062,,2,80.0,0.0,440.0,0,0,1,18558,16455,11.970000267
1587292516442322936,28282,1587292516439616062,,2,141.0,0.0,416.0,0,0,1,18593,16489,11.970000267
1587292516464733352,28283,1587292516474616062,,2,139.0,0.0,416.0,0,0,1,18629,16523,11.9499998093
1587292516506048248,28284,1587292516509616062,,2,80.0,0.0,485.0,0,0,1,18663,16559,11.9499998093
1587292516544229758,28285,1587292516542616062,,2,142.0,0.0,425.0,0,0,1,18697,16592,11.9499998093
1587292516566416477,28286,1587292516579616062,,2,118.0,0.0,430.0,0,0,1,18735,16629,11.970000267
1587292516611244290,28287,1587292516612616062,,2,143.0,0.0,396.0,0,0,1,18768,16661,11.9499998093
1587292516634524394,28288,1587292516647616062,,2,143.0,0.0,411.0,0,0,1,18801,16696,11.9499998093
1587292516676720123,28289,1587292516680616062,,2,142.0,0.0,486.0,0,0,1,18832,16728,11.9499998093
1587292516717711373,28290,1587292516713616062,,2,145.0,0.0,424.0,0,0,1,18864,16761,11.9499998093
1587292516738148300,28291,1587292516750616062,,2,81.0,0.0,493.0,0,0,1,18904,16797,11.9499998093
1587292516778411060,28292,1587292516783616062,,2,140.0,0.0,456.0,0,0,1,18935,16831,11.9499998093
1587292516824705279,28293,1587292516816616062,,2,119.0,0.0,422.0,0,0,1,18967,16865,11.970000267
1587292516841344081,28294,1587292516849616062,,2,119.0,0.0,477.0,0,0,1,18998,16899,11.9499998093
1587292516880363300,28295,1587292516882616062,,2,119.0,0.0,429.0,0,0,1,19032,16932,11.9499998093
1587292516903956060,28296,1587292516917616062,,2,140.0,0.0,431.0,0,0,1,19066,16965,11.970000267
1587292516944962363,28297,1587292516950616062,,2,80.0,0.0,427.0,0,0,1,19097,16998,11.9499998093
1587292516984726008,28298,1587292516983616062,,2,143.0,0.0,399.0,0,0,1,19130,17030,11.970000267
1587292517006407727,28299,1587292517018616062,,2,119.0,0.0,392.0,0,0,1,19166,17067,11.9499998093
1587292517049196373,28300,1587292517053616062,,2,143.0,0.0,389.0,0,0,1,19202,17103,11.9499998093
1587292517083594394,28301,1587292517086616062,,2,140.0,0.0,462.0,0,0,1,19234,17137,11.9499998093
1587292517107581842,28302,1587292517121616062,,2,80.0,0.0,438.0,0,0,1,19268,17173,11.970000267
1587292517149411112,28303,1587292517154616062,,2,143.0,0.0,413.0,0,0,1,19299,17205,11.970000267
1587292517194498352,28304,1587292517186616062,,2,143.0,0.0,429.0,0,0,1,19332,17237,11.9499998093
1587292517211606425,28305,1587292517221616062,,2,144.0,0.0,415.0,0,0,1,19366,17272,11.970000267
1587292517256953196,28306,1587292517254616062,,2,119.0,0.0,396.0,0,0,1,19399,17304,11.9499998093
1587292517292267519,28307,1587292517299616062,,2,142.0,0.0,438.0,0,0,1,19443,17351,11.9499998093
1587292517336572310,28308,1587292517332616062,,2,119.0,0.0,435.0,0,0,1,19476,17384,11.970000267
1587292517352852102,28309,1587292517365616062,,2,144.0,0.0,497.0,0,0,1,19508,17416,11.9499998093
1587292517395568925,28310,1587292517398616062,,2,81.0,0.0,458.0,0,0,1,19540,17449,11.970000267
1587292517426424446,28311,1587292517437616062,,2,145.0,0.0,420.0,0,0,1,19579,17489,11.970000267
1587292517469437206,28312,1587292517470616062,,2,142.0,0.0,400.0,0,0,1,19612,17521,11.970000267
1587292517490757831,28313,1587292517506616062,,2,81.0,0.0,477.0,0,0,1,19648,17557,11.970000267
1587292517531496008,28314,1587292517539616062,,2,141.0,0.0,451.0,0,0,1,19681,17590,11.9499998093
1587292517576986841,28315,1587292517572616062,,2,144.0,0.0,411.0,0,0,1,19715,17625,11.9499998093
1587292517597294289,28316,1587292517606616062,,2,146.0,0.0,413.0,0,0,1,19751,17660,11.9499998093
1587292517637485331,28317,1587292517639616062,,2,146.0,0.0,385.0,0,0,1,19782,17692,11.9499998093
1587292517665108091,28318,1587292517674616062,,2,119.0,0.0,409.0,0,0,1,19817,17729,11.970000267
1587292517703622623,28319,1587292517707616062,,2,120.0,0.0,412.0,0,0,1,19849,17760,11.9499998093
1587292517747780643,28320,1587292517740616062,,2,144.0,0.0,475.0,0,0,1,19883,17792,11.970000267
1587292517767790227,28321,1587292517776616062,,2,81.0,0.0,454.0,0,0,1,19920,17829,11.970000267
1587292517810659185,28322,1587292517809616062,,2,142.0,0.0,433.0,0,0,1,19952,17861,11.970000267
1587292517857970748,28323,1587292517860616062,,2,145.0,0.0,429.0,0,0,1,20004,17913,11.9499998093
1587292517896853039,28324,1587292517893616062,,2,81.0,0.0,409.0,0,0,1,20037,17944,11.9499998093
1587292517915657987,28325,1587292517930616062,,2,119.0,0.0,393.0,0,0,1,20073,17981,11.9499998093
1587292517960049550,28326,1587292517963616062,,2,119.0,0.0,416.0,0,0,1,20104,18012,11.970000267
1587292518007243456,28327,1587292517996616062,,2,119.0,0.0,397.0,0,0,1,20136,18047,11.9499998093
1587292518025653039,28328,1587292518033616062,,2,80.0,0.0,386.0,0,0,1,20176,18084,11.970000267
1587292518068154185,28329,1587292518071853092,,2,141.0,0.0,397.0,0,0,1,20207,18116,11.970000267
1587292518110323352,28330,1587292518124853092,,2,122.0,0.0,404.0,0,0,1,20259,18171,11.9499998093
1587292518154332675,28331,1587292518157853092,,2,144.0,0.0,395.0,0,0,1,20291,18203,11.970000267
1587292518174644706,28332,1587292518191853092,,2,119.0,0.0,393.0,0,0,1,20326,18236,11.970000267
1587292518218570956,28333,1587292518224853092,,2,81.0,0.0,385.0,0,0,1,20357,18267,11.9499998093
1587292518258818508,28334,1587292518257853092,,2,119.0,0.0,466.0,0,0,1,20390,18299,11.9499998093
1587292518276898091,28335,1587292518293853092,,2,80.0,0.0,420.0,0,0,1,20424,18335,11.9499998093
1587292518319748768,28336,1587292518326853092,,2,141.0,0.0,485.0,0,0,1,20459,18366,11.9499998093
1587292518364412779,28337,1587292518375853092,,2,146.0,0.0,461.0,0,0,1,20507,18416,11.9300003052
1587292518407448247,28338,1587292518408853092,,2,80.0,0.0,445.0,0,0,1,20540,18448,11.970000267
1587292518427906685,28339,1587292518443853092,,2,119.0,0.0,501.0,0,0,1,20575,18484,11.9499998093
1587292518467134237,28340,1587292518476853092,,2,148.0,0.0,437.0,0,0,1,20606,18516,11.9499998093
1587292518510738872,28341,1587292518509853092,,2,144.0,0.0,416.0,0,0,1,20640,18547,11.9499998093
1587292518533272206,28342,1587292518544853092,,2,141.0,0.0,398.0,0,0,1,20676,18581,11.9499998093
1587292518570225747,28343,1587292518577853092,,2,142.0,0.0,467.0,0,0,1,20710,18614,11.970000267
1587292518612735279,28344,1587292518624853092,,2,144.0,0.0,463.0,0,0,1,20759,18662,11.970000267
1587292518654855956,28345,1587292518657853092,,2,119.0,0.0,515.0,0,0,1,20790,18694,11.970000267
1587292518671778351,28346,1587292518692853092,,2,80.0,0.0,458.0,0,0,1,20826,18728,11.9499998093
1587292518718346112,28347,1587292518725853092,,2,141.0,0.0,436.0,0,0,1,20859,18760,11.9499998093
1587292518757444393,28348,1587292518758853092,,2,81.0,0.0,398.0,0,0,1,20891,18791,11.9499998093
1587292518775388247,28349,1587292518795853092,,2,118.0,0.0,471.0,0,0,1,20927,18827,11.9499998093
1587292518817600591,28350,1587292518828853092,,2,122.0,0.0,427.0,0,0,1,20960,18859,11.970000267
1587292518858942466,28351,1587292518861853092,,2,144.0,0.0,430.0,0,0,1,20994,18893,11.970000267
1587292518881108039,28352,1587292518895853092,,2,81.0,0.0,399.0,0,0,1,21027,18925,11.9499998093
1587292518924104028,28353,1587292518928853092,,2,119.0,0.0,388.0,0,0,1,21057,18958,11.970000267
1587292518946466737,28354,1587292518966853092,,2,118.0,0.0,384.0,0,0,1,21096,18996,11.9499998093
1587292518987414758,28355,1587292518999853092,,2,141.0,0.0,407.0,0,0,1,21129,19028,11.970000267
1587292519030346372,28356,1587292519032853092,,2,118.0,0.0,430.0,0,0,1,21162,19059,11.9499998093
1587292519047884185,28357,1587292519066853092,,2,142.0,0.0,494.0,0,0,1,21197,19092,11.970000267
1587292519090152830,28358,1587292519099853092,,2,119.0,0.0,434.0,0,0,1,21228,19125,11.9499998093
1587292519134058768,28359,1587292519132853092,,2,156.0,0.0,495.0,0,0,1,21261,19159,11.970000267
1587292519152347362,28360,1587292519171853092,,2,140.0,0.0,442.0,0,0,1,21301,19196,11.970000267
1587292519195050435,28361,1587292519204853092,,2,118.0,0.0,498.0,0,0,1,21332,19229,11.970000267
1587292519235336060,28362,1587292519237853092,,2,141.0,0.0,441.0,0,0,1,21363,19261,11.970000267
1587292519253691685,28363,1587292519274853092,,2,118.0,0.0,419.0,0,0,1,21399,19298,11.970000267
1587292519293932362,28364,1587292519307853092,,2,141.0,0.0,419.0,0,0,1,21434,19331,11.970000267
1587292519335219497,28365,1587292519340853092,,2,139.0,0.0,396.0,0,0,1,21465,19361,11.970000267
1587292519357868195,28366,1587292519373853092,,2,118.0,0.0,386.0,0,0,1,21498,19394,11.970000267
1587292519397547153,28367,1587292519406853092,,2,118.0,0.0,381.0,0,0,1,21529,19428,11.970000267
1587292519421232205,28368,1587292519439853092,,2,80.0,0.0,387.0,0,0,1,21563,19461,11.970000267
1587292519463214132,28369,1587292519472853092,,2,80.0,0.0,379.0,0,0,1,21596,19492,11.9499998093
1587292519504583403,28370,1587292519505853092,,2,118.0,0.0,394.0,0,0,1,21628,19524,11.970000267
1587292519525026945,28371,1587292519542853092,,2,138.0,0.0,474.0,0,0,1,21665,19561,11.970000267
1587292519570543559,28372,1587292519575853092,,2,139.0,0.0,428.0,0,0,1,21698,19594,11.9499998093
1587292519590831112,28373,1587292519611853092,,2,140.0,0.0,487.0,0,0,1,21736,19629,11.970000267
1587292519633880591,28374,1587292519644853092,,2,150.0,0.0,515.0,0,0,1,21770,19662,11.970000267
1587292519682618039,28375,1587292519677853092,,2,81.0,0.0,464.0,0,0,1,21800,19694,11.9499998093
1587292519696345122,28376,1587292519713853092,,2,80.0,0.0,514.0,0,0,1,21837,19731,11.970000267
1587292519736693924,28377,1587292519746853092,,2,80.0,0.0,442.0,0,0,1,21871,19764,11.9499998093
1587292519779673351,28378,1587292519779853092,,2,138.0,0.0,403.0,0,0,1,21902,19794,11.970000267
1587292519797473768,28379,1587292519813853092,,2,117.0,0.0,408.0,0,0,1,21937,19827,11.970000267
1587292519839510174,28380,1587292519846853092,,2,136.0,0.0,396.0,0,0,1,21970,19860,11.970000267
1587292519882227309,28381,1587292519893853092,,2,117.0,0.0,487.0,0,0,1,22017,19907,11.970000267
1587292519923960278,28382,1587292519926853092,,2,139.0,0.0,419.0,0,0,1,22048,19940,11.970000267
1587292519940484913,28383,1587292519961853092,,2,117.0,0.0,488.0,0,0,1,22083,19975,11.9499998093
1587292519984236997,28384,1587292519994853092,,2,138.0,0.0,454.0,0,0,1,22116,20009,11.970000267
1587292520024851059,28385,1587292520027853092,,2,155.0,0.0,403.0,0,0,1,22149,20040,11.970000267
1587292520043582778,28386,1587292520061853092,,2,117.0,0.0,411.0,0,0,1,22182,20074,11.9499998093
1587292520085547570,28387,1587292520094853092,,2,80.0,0.0,421.0,0,0,1,22216,20106,11.9499998093
1587292520128090330,28388,1587292520127853092,,2,136.0,0.0,420.0,0,0,1,22249,20140,11.970000267
1587292520144754236,28389,1587292520163853092,,2,118.0,0.0,436.0,0,0,1,22286,20178,11.9499998093
1587292520190469809,28390,1587292520196853092,,2,118.0,0.0,425.0,0,0,1,22317,20210,11.970000267
1587292520229898403,28391,1587292520244853092,,2,81.0,0.0,503.0,0,0,1,22364,20259,11.970000267
1587292520273760955,28392,1587292520277853092,,2,143.0,0.0,521.0,0,0,1,22396,20291,11.9499998093
1587292520289703247,28393,1587292520311853092,,2,137.0,0.0,535.0,0,0,1,22430,20324,11.970000267
1587292520333839965,28394,1587292520344853092,,2,136.0,0.0,460.0,0,0,1,22462,20355,11.9499998093
1587292520375215017,28395,1587292520377853092,,2,126.0,0.0,409.0,0,0,1,22494,20389,11.970000267
1587292520397386267,28396,1587292520412853092,,2,136.0,0.0,424.0,0,0,1,22531,20425,11.970000267
1587292520448542361,28397,1587292520445853092,,2,137.0,0.0,424.0,0,0,1,22565,20457,11.970000267
1587292520460204497,28398,1587292520478853092,,2,117.0,0.0,393.0,0,0,1,22596,20490,11.970000267
1587292520504358924,28399,1587292520511853092,,2,80.0,0.0,468.0,0,0,1,22629,20524,11.9499998093
1587292520548359236,28400,1587292520536013101,,2,117.0,0.0,508.0,0,0,1,22660,20556,11.970000267
1587292520566095799,28401,1587292520571013101,,2,135.0,0.0,438.0,0,0,1,22696,20591,11.9499998093
1587292520612548507,28402,1587292520604013101,,2,138.0,0.0,495.0,0,0,1,22730,20623,11.9499998093
1587292520635160851,28403,1587292520645013101,,2,116.0,0.0,442.0,0,0,1,22771,20665,11.9499998093
1587292520683334288,28404,1587292520678013101,,2,81.0,0.0,429.0,0,0,1,22803,20700,11.9499998093
1587292520723438715,28405,1587292520711013101,,2,117.0,0.0,500.0,0,0,1,22836,20731,11.9499998093
1587292520741589757,28406,1587292520752013101,,2,81.0,0.0,435.0,0,0,1,22878,20771,11.970000267
1587292520782840330,28407,1587292520785013101,,2,117.0,0.0,403.0,0,0,1,22909,20803,11.970000267
1587292520825536944,28408,1587292520818013101,,2,81.0,0.0,481.0,0,0,1,22940,20836,11.970000267
1587292520841885746,28409,1587292520854013101,,2,117.0,0.0,513.0,0,0,1,22977,20873,11.9499998093
1587292520884862049,28410,1587292520887013101,,2,137.0,0.0,457.0,0,0,1,23010,20906,11.970000267
1587292520922704496,28411,1587292520920013101,,2,118.0,0.0,499.0,0,0,1,23043,20938,11.9499998093
1587292520949828038,28412,1587292520955013101,,2,118.0,0.0,466.0,0,0,1,23077,20975,11.970000267
1587292520989207934,28413,1587292520988013101,,2,139.0,0.0,428.0,0,0,1,23108,21008,11.970000267
1587292521034394340,28414,1587292521023013101,,2,81.0,0.0,414.0,0,0,1,23144,21044,11.9499998093
1587292521047442153,28415,1587292521058013101,,2,117.0,0.0,488.0,0,0,1,23177,21078,11.9499998093
1587292521088556111,28416,1587292521091013101,,2,117.0,0.0,428.0,0,0,1,23210,21110,11.9499998093
1587292521128853090,28417,1587292521124013101,,2,136.0,0.0,401.0,0,0,1,23243,21144,11.9499998093
1587292521147057830,28418,1587292521158013101,,2,137.0,0.0,392.0,0,0,1,23277,21179,11.9499998093
1587292521191750590,28419,1587292521191013101,,2,118.0,0.0,388.0,0,0,1,23309,21212,11.970000267
1587292521235109288,28420,1587292521224013101,,2,140.0,0.0,364.0,0,0,1,23341,21245,11.970000267
1587292521252281892,28421,1587292521262013101,,2,136.0,0.0,463.0,0,0,1,23378,21284,11.970000267
1587292521294569653,28422,1587292521295013101,,2,118.0,0.0,438.0,0,0,1,23410,21315,11.9499998093
1587292521335904288,28423,1587292521328013101,,2,137.0,0.0,398.0,0,0,1,23441,21347,11.970000267
1587292521354036736,28424,1587292521362013101,,2,117.0,0.0,408.0,0,0,1,23475,21380,11.970000267
1587292521398443402,28425,1587292521395013101,,2,138.0,0.0,389.0,0,0,1,23508,21415,11.970000267
1587292521438688090,28426,1587292521428013101,,2,165.0,0.0,375.0,0,0,1,23541,21449,11.970000267
1587292521456798455,28427,1587292521464013101,,2,81.0,0.0,400.0,0,0,1,23577,21484,11.9499998093
1587292521502540382,28428,1587292521497013101,,2,127.0,0.0,387.0,0,0,1,23608,21518,11.970000267
1587292521536171527,28429,1587292521545013101,,2,139.0,0.0,395.0,0,0,1,23656,21568,11.9499998093
1587292521578453454,28430,1587292521578013101,,2,139.0,0.0,381.0,0,0,1,23688,21599,11.970000267
1587292521621238923,28431,1587292521610013101,,2,117.0,0.0,379.0,0,0,1,23723,21631,11.970000267
1587292521640621007,28432,1587292521649013101,,2,137.0,0.0,466.0,0,0,1,23759,21670,11.9499998093
1587292521685254652,28433,1587292521681013101,,2,118.0,0.0,429.0,0,0,1,23793,21702,11.9499998093
1587292521727488350,28434,1587292521714013101,,2,140.0,0.0,482.0,0,0,1,23827,21735,11.9499998093
1587292521745841684,28435,1587292521750013101,,2,118.0,0.0,507.0,0,0,1,23863,21772,11.9499998093
1587292521787951006,28436,1587292521783013101,,2,118.0,0.0,479.0,0,0,1,23894,21804,11.9499998093
1587292521823973923,28437,1587292521822013101,,2,118.0,0.0,430.0,0,0,1,23933,21845,11.9499998093
1587292521864202725,28438,1587292521854013101,,2,138.0,0.0,402.0,0,0,1,23967,21876,11.970000267
